[
  {
    "name": "Karunakara Perumal",
    "alt_names": [
      "Karunakaran"
    ],
    "state": "Tamil Nadu",
    "district": null,
    "locality": "Madurantakam",
    "lat": null,
    "lng": null,
    "wiki": null,
    "link_to_slug": null
  },
  {
    "name": "Chakravarthi Thirumagan",
    "alt_names": [
      "Sri Kothandaramar"
    ],
    "state": "Tamil Nadu",
    "district": null,
    "locality": "Vaduvur",
    "lat": null,
    "lng": null,
    "wiki": null,
    "link_to_slug": null
  },
  {
    "name": "Adhikesava Perumal",
    "alt_names": [],
    "state": "Tamil Nadu",
    "district": null,
    "locality": "Sriperumbudur",
    "lat": null,
    "lng": null,
    "wiki": null,
    "link_to_slug": null
  },
  {
    "name": "Jagannathan",
    "alt_names": [],
    "state": "Tamil Nadu",
    "district": null,
    "locality": "Thirumazhisai",
    "lat": null,
    "lng": null,
    "wiki": null,
    "link_to_slug": null
  },
  {
    "name": "Lakshmi Narasimhar",
    "alt_names": [],
    "state": "Tamil Nadu",
    "district": null,
    "locality": "Singaperumal Koil",
    "lat": null,
    "lng": null,
    "wiki": null,
    "link_to_slug": null
  },
  {
    "name": "Prasanna Venkatachalapathy Perumal",
    "alt_names": [],
    "state": "Tamil Nadu",
    "district": null,
    "locality": "Gunaseelam",
    "lat": null,
    "lng": null,
    "wiki": null,
    "link_to_slug": null
  },
  {
    "name": "Narasimhar",
    "alt_names": [],
    "state": "Tamil Nadu",
    "district": null,
    "locality": "Namakkal",
    "lat": null,
    "lng": null,
    "wiki": null,
    "link_to_slug": null
  },
  {
    "name": "Prasanna Venkatesar",
    "alt_names": [],
    "state": "Tamil Nadu",
    "district": null,
    "locality": "Thanthondri Malai",
    "lat": null,
    "lng": null,
    "wiki": null,
    "link_to_slug": null
  },
  {
    "name": "Sundararaja Perumal",
    "alt_names": [],
    "state": "Tamil Nadu",
    "district": null,
    "locality": "Perumpuliyur (Kumbakonam region)",
    "lat": null,
    "lng": null,
    "wiki": null,
    "link_to_slug": null
  },
  {
    "name": "Sri Renganathar",
    "alt_names": [],
    "state": "Tamil Nadu",
    "district": null,
    "locality": "Thirumandangudi (Kumbakonam region)",
    "lat": null,
    "lng": null,
    "wiki": null,
    "link_to_slug": null
  },
  {
    "name": "Kolavamanar",
    "alt_names": [],
    "state": "Tamil Nadu",
    "district": null,
    "locality": "Sikkal (near Nagapattinam)",
    "lat": null,
    "lng": null,
    "wiki": null,
    "link_to_slug": null
  },
  {
    "name": "Renganathar",
    "alt_names": [],
    "state": "Tamil Nadu",
    "district": null,
    "locality": "Adhirangam (near Vedaranyam)",
    "lat": null,
    "lng": null,
    "wiki": null,
    "link_to_slug": null
  },
  {
    "name": "Srinivasan",
    "alt_names": [],
    "state": "Tamil Nadu",
    "district": null,
    "locality": "Kodikkarai (Point Calimere)",
    "lat": null,
    "lng": null,
    "wiki": null,
    "link_to_slug": null
  },
  {
    "name": "Veeranarayana Perumal",
    "alt_names": [],
    "state": "Tamil Nadu",
    "district": null,
    "locality": "Kattumannarkoil (near Chidambaram)",
    "lat": null,
    "lng": null,
    "wiki": null,
    "link_to_slug": null
  },
  {
    "name": "Thillai Vilagam Ranganatha Perumal",
    "alt_names": [
      "Thillai Vilaaham"
    ],
    "state": "Tamil Nadu",
    "district": null,
    "locality": "Near Pattukkottai",
    "lat": null,
    "lng": null,
    "wiki": null,
    "link_to_slug": null
  },
  {
    "name": "Pacchai Vanna Perumal",
    "alt_names": [
      "Kallvan",
      "Pacchai Vannan"
    ],
    "state": "Tamil Nadu",
    "district": null,
    "locality": "Kanchipuram",
    "lat": null,
    "lng": null,
    "wiki": null,
    "link_to_slug": null
  },
  {
    "name": "Kamakoashtam Perumal",
    "alt_names": [],
    "state": "Tamil Nadu",
    "district": null,
    "locality": "Kanchipuram",
    "lat": null,
    "lng": null,
    "wiki": null,
    "link_to_slug": null
  },
  {
    "name": "Pandurangan",
    "alt_names": [],
    "state": "Tamil Nadu",
    "district": null,
    "locality": "Thennangur",
    "lat": null,
    "lng": null,
    "wiki": null,
    "link_to_slug": null
  },
  {
    "name": "Navapashanam (Navabhasaanam)",
    "alt_names": [],
    "state": "Tamil Nadu",
    "district": "Ramanathapuram",
    "locality": "Devipattinam",
    "lat": null,
    "lng": null,
    "wiki": null,
    "link_to_slug": null
  },
  {
    "name": "Raghavendra Brindavana (Mantralayam)",
    "alt_names": [
      "Mantralayam"
    ],
    "state": "Andhra Pradesh",
    "district": null,
    "locality": "Mantralayam",
    "lat": null,
    "lng": null,
    "wiki": null,
    "link_to_slug": null
  },
  {
    "name": "Panaka Narasimha",
    "alt_names": [],
    "state": "Andhra Pradesh",
    "district": null,
    "locality": "Mangalagiri (Vijayawada region)",
    "lat": null,
    "lng": null,
    "wiki": null,
    "link_to_slug": null
  },
  {
    "name": "Vishnuprayag",
    "alt_names": [
      "Vishnupprayagai"
    ],
    "state": "Uttarakhand",
    "district": null,
    "locality": "Vishnuprayag (Badrinath region)",
    "lat": null,
    "lng": null,
    "wiki": null,
    "link_to_slug": null
  },
  {
    "name": "Pandukeshwar",
    "alt_names": [
      "PaanduKeshvar"
    ],
    "state": "Uttarakhand",
    "district": null,
    "locality": "Pandukeshwar (Badrinath region)",
    "lat": null,
    "lng": null,
    "wiki": null,
    "link_to_slug": null
  },
  {
    "name": "Matrugaya",
    "alt_names": [
      "Matru Gaya"
    ],
    "state": "Gujarat",
    "district": "Patan",
    "locality": "Siddhpur",
    "lat": null,
    "lng": null,
    "wiki": null,
    "link_to_slug": null
  },
  {
    "name": "Sri Ranganathaswamy Temple",
    "alt_names": [
      "Renganathar"
    ],
    "state": "Karnataka",
    "district": "Mandya",
    "locality": "Srirangapatna",
    "lat": 12.424167,
    "lng": 76.683056,
    "wiki": "https://en.wikipedia.org/wiki/Ranganathaswamy_Temple,_Srirangapatna",
    "link_to_slug": null,
    "contacts": {
      "phones": [],
      "websites": [],
      "emails": []
    },
    "notes": null,
    "sources": [
      "https://en.wikipedia.org/wiki/Ranganathaswamy_Temple,_Srirangapatna"
    ]
  },
  {
    "name": "Nambi Narayana Temple",
    "alt_names": [
      "Nambi Nayanar"
    ],
    "state": "Karnataka",
    "district": "Mandya",
    "locality": "Tondanur (near Melukote)",
    "lat": null,
    "lng": null,
    "wiki": null,
    "link_to_slug": null
  },
  {
    "name": "Sri Ranganathaswamy Temple",
    "alt_names": [],
    "state": "Karnataka",
    "district": "Mandya",
    "locality": "Shivanasamudra",
    "lat": null,
    "lng": null,
    "wiki": null,
    "link_to_slug": null
  },
  {
    "name": "Gunja Narasimha Swamy",
    "alt_names": [
      "Kunjaala Narasimhar"
    ],
    "state": "Karnataka",
    "district": "Mysuru",
    "locality": "T. Narasipura",
    "lat": null,
    "lng": null,
    "wiki": null,
    "link_to_slug": null
  },
  {
    "name": "Udupi Sri Krishna Matha",
    "alt_names": [
      "Balakrishnan"
    ],
    "state": "Karnataka",
    "district": "Udupi",
    "locality": "Udupi",
    "lat": 13.341389,
    "lng": 74.746111,
    "wiki": "https://en.wikipedia.org/wiki/Udupi_Sri_Krishna_Matha",
    "link_to_slug": null,
    "contacts": {
      "phones": [],
      "websites": [
        "https://www.udupisrikrishnamatha.org/"
      ],
      "emails": []
    },
    "notes": null,
    "sources": [
      "https://en.wikipedia.org/wiki/Udupi_Sri_Krishna_Matha",
      "https://www.udupisrikrishnamatha.org/"
    ]
  },
  {
    "name": "Guruvayur Sri Krishna Temple",
    "alt_names": [
      "Guruvayoorappan"
    ],
    "state": "Kerala",
    "district": "Thrissur",
    "locality": "Guruvayur",
    "lat": 10.595,
    "lng": 76.039444,
    "wiki": "https://en.wikipedia.org/wiki/Guruvayur_Temple",
    "link_to_slug": null,
    "contacts": {
      "phones": [],
      "websites": [
        "https://guruvayurdevaswom.in/"
      ],
      "emails": []
    },
    "notes": null,
    "sources": [
      "https://en.wikipedia.org/wiki/Guruvayur_Temple",
      "https://guruvayurdevaswom.in/"
    ]
  }
]