{
  "totalTemples": 401,
  "templesWithMissingData": [
    {
      "index": 1,
      "name": "Aamaiyurappar Temple",
      "displayName": "Aamaiyurappar Temple",
      "missingFields": [
        "perumal",
        "thaayaar",
        "wikidata_qid"
      ],
      "currentData": {
        "perumal": "Unknown",
        "thaayaar": null,
        "district": "Viluppuram",
        "locality": "Aamaiyur",
        "wikidata_qid": null,
        "coordinates": "11.882, 79.404"
      }
    },
    {
      "index": 2,
      "name": "Aanaimadathu Ayyanar Temple",
      "displayName": "Aanaimadathu Ayyanar Temple",
      "missingFields": [
        "thaayaar",
        "wikidata_qid"
      ],
      "currentData": {
        "perumal": "Ayyanar",
        "thaayaar": null,
        "district": "Thanjavur",
        "locality": "Anaimadam",
        "wikidata_qid": null,
        "coordinates": "10.92, 79.13"
      }
    },
    {
      "index": 3,
      "name": "Aappudaiyar Temple, Sellur",
      "displayName": "Aappudaiyar Temple, Sellur",
      "missingFields": [
        "perumal",
        "thaayaar",
        "wikidata_qid"
      ],
      "currentData": {
        "perumal": "Unknown",
        "thaayaar": null,
        "district": "Madurai",
        "locality": "Sellur",
        "wikidata_qid": null,
        "coordinates": "9.93, 78.12"
      }
    },
    {
      "index": 4,
      "name": "Aavai Nathar Temple",
      "displayName": "Aavai Nathar Temple",
      "missingFields": [
        "perumal",
        "thaayaar",
        "wikidata_qid"
      ],
      "currentData": {
        "perumal": "Unknown",
        "thaayaar": null,
        "district": "Madurai",
        "locality": "Madurai",
        "wikidata_qid": null,
        "coordinates": "9.9208, 78.1197"
      }
    },
    {
      "index": 5,
      "name": "Abhimuktheeswarar Temple, Peruvelur",
      "displayName": "Abhimuktheeswarar Temple, Peruvelur",
      "missingFields": [
        "perumal",
        "thaayaar",
        "wikidata_qid"
      ],
      "currentData": {
        "perumal": "Unknown",
        "thaayaar": null,
        "district": "Thiruvarur",
        "locality": "Manakkal Ayyampettai",
        "wikidata_qid": null,
        "coordinates": "10.78, 79.52"
      }
    },
    {
      "index": 6,
      "name": "Adhanathaswamy Temple, Thiruvadanai",
      "displayName": "Adhanathaswamy Temple, Thiruvadanai",
      "missingFields": [
        "perumal",
        "thaayaar",
        "wikidata_qid"
      ],
      "currentData": {
        "perumal": "Unknown",
        "thaayaar": null,
        "district": "Ramanathapuram",
        "locality": "Thiruvadanai",
        "wikidata_qid": null,
        "coordinates": "9.77, 78.92"
      }
    },
    {
      "index": 7,
      "name": "Adhikesava Perumal",
      "displayName": "Adhikesava Perumal",
      "missingFields": [
        "perumal",
        "thaayaar",
        "district",
        "wikidata_qid"
      ],
      "currentData": {
        "perumal": "Unknown",
        "thaayaar": null,
        "district": null,
        "locality": "Sriperumbudur",
        "wikidata_qid": null,
        "coordinates": "12.9681225, 79.9483335"
      }
    },
    {
      "index": 8,
      "name": "Agastheeswarar Temple, Agathiyanpalli",
      "displayName": "Agastheeswarar Temple, Agathiyanpalli",
      "missingFields": [
        "perumal",
        "thaayaar",
        "wikidata_qid"
      ],
      "currentData": {
        "perumal": "Unknown",
        "thaayaar": null,
        "district": "Nagapattinam",
        "locality": "Agasthiyampalli",
        "wikidata_qid": null,
        "coordinates": "10.363, 79.845"
      }
    },
    {
      "index": 9,
      "name": "Agneeswarar Temple, Kanjanur",
      "displayName": "Agneeswarar Temple, Kanjanur",
      "missingFields": [
        "perumal",
        "thaayaar",
        "wikidata_qid"
      ],
      "currentData": {
        "perumal": "Unknown",
        "thaayaar": null,
        "district": "Thanjavur",
        "locality": "Kanjanur",
        "wikidata_qid": null,
        "coordinates": "11.09, 79.43"
      }
    },
    {
      "index": 10,
      "name": "Agneeswarar Temple, Thirukattuppalli",
      "displayName": "Agneeswarar Temple, Thirukattuppalli",
      "missingFields": [
        "perumal",
        "thaayaar",
        "wikidata_qid"
      ],
      "currentData": {
        "perumal": "Unknown",
        "thaayaar": null,
        "district": "Thanjavur",
        "locality": "Thirukattupalli",
        "wikidata_qid": null,
        "coordinates": "10.865, 78.95"
      }
    },
    {
      "index": 11,
      "name": "Agneeswarar Temple, Thirukollikadu",
      "displayName": "Agneeswarar Temple, Thirukollikadu",
      "missingFields": [
        "perumal",
        "thaayaar",
        "wikidata_qid"
      ],
      "currentData": {
        "perumal": "Unknown",
        "thaayaar": null,
        "district": "Thiruvarur",
        "locality": "Thirukollikadu",
        "wikidata_qid": null,
        "coordinates": "10.63, 79.58"
      }
    },
    {
      "index": 12,
      "name": "Agnipureeswarar Temple, Anniyur",
      "displayName": "Agnipureeswarar Temple, Anniyur",
      "missingFields": [
        "perumal",
        "thaayaar",
        "wikidata_qid"
      ],
      "currentData": {
        "perumal": "Unknown",
        "thaayaar": null,
        "district": "Mayiladuthurai",
        "locality": "Anniyur",
        "wikidata_qid": null,
        "coordinates": "11.168, 79.692"
      }
    },
    {
      "index": 13,
      "name": "Agnipureeswarar Temple, Thirupugalur",
      "displayName": "Agnipureeswarar Temple, Thirupugalur",
      "missingFields": [
        "perumal",
        "thaayaar"
      ],
      "currentData": {
        "perumal": "Unknown",
        "thaayaar": null,
        "district": "Nagapattinam",
        "locality": "Thirupugalur",
        "wikidata_qid": "Q24518074",
        "coordinates": "10.865, 79.684"
      }
    },
    {
      "index": 14,
      "name": "Airavateswarar Temple, Ethirkolpadi",
      "displayName": "Airavateswarar Temple, Ethirkolpadi",
      "missingFields": [
        "perumal",
        "thaayaar",
        "wikidata_qid"
      ],
      "currentData": {
        "perumal": "Unknown",
        "thaayaar": null,
        "district": "Mayiladuthurai",
        "locality": "Mela Thirumanancheri",
        "wikidata_qid": null,
        "coordinates": "11.108, 79.526"
      }
    },
    {
      "index": 15,
      "name": "Aiyarappar Temple, Thiruvaiyaru",
      "displayName": "Aiyarappar Temple, Thiruvaiyaru",
      "missingFields": [
        "perumal",
        "thaayaar",
        "wikidata_qid"
      ],
      "currentData": {
        "perumal": "Unknown",
        "thaayaar": null,
        "district": "Thanjavur",
        "locality": "Thiruvaiyaru",
        "wikidata_qid": null,
        "coordinates": "10.883, 79.1"
      }
    },
    {
      "index": 16,
      "name": "Amarnath Cave Temple",
      "displayName": "Amarnath Cave Temple",
      "missingFields": [
        "perumal",
        "thaayaar",
        "wikidata_qid"
      ],
      "currentData": {
        "perumal": "Unknown",
        "thaayaar": null,
        "district": "Anantnag",
        "locality": "Anantnag",
        "wikidata_qid": null,
        "coordinates": "34.1764, 75.3107"
      }
    },
    {
      "index": 17,
      "name": "Amirthakadeswarar Temple, Melakadambur",
      "displayName": "Amirthakadeswarar Temple, Melakadambur",
      "missingFields": [
        "perumal",
        "thaayaar",
        "wikidata_qid"
      ],
      "currentData": {
        "perumal": "Unknown",
        "thaayaar": null,
        "district": "Cuddalore",
        "locality": "Melakadambur",
        "wikidata_qid": null,
        "coordinates": "11.3001, 79.4912"
      }
    },
    {
      "index": 18,
      "name": "Amirthakadeswarar Temple, Sakkottai",
      "displayName": "Amirthakadeswarar Temple, Sakkottai",
      "missingFields": [
        "perumal",
        "thaayaar"
      ],
      "currentData": {
        "perumal": "Unknown",
        "thaayaar": null,
        "district": "Thanjavur",
        "locality": "Kalayanallur",
        "wikidata_qid": "Q4746783",
        "coordinates": "10.95, 79.35"
      }
    },
    {
      "index": 19,
      "name": "Anekadhangavadeswarar Temple, Kanchipuram",
      "displayName": "Anekadhangavadeswarar Temple, Kanchipuram",
      "missingFields": [
        "perumal",
        "thaayaar",
        "wikidata_qid"
      ],
      "currentData": {
        "perumal": "Unknown",
        "thaayaar": null,
        "district": "Kanchipuram",
        "locality": "Kanchipuram",
        "wikidata_qid": null,
        "coordinates": "12.84, 79.7"
      }
    },
    {
      "index": 20,
      "name": "Apathsahayar Temple, Thiruppazhanam",
      "displayName": "Apathsahayar Temple, Thiruppazhanam",
      "missingFields": [
        "perumal",
        "thaayaar",
        "wikidata_qid"
      ],
      "currentData": {
        "perumal": "Unknown",
        "thaayaar": null,
        "district": "Thanjavur",
        "locality": "Thirupazhanam",
        "wikidata_qid": null,
        "coordinates": "10.9, 79.133"
      }
    },
    {
      "index": 21,
      "name": "Arambeswarar Temple, Ilambaiyankottur",
      "displayName": "Arambeswarar Temple, Ilambaiyankottur",
      "missingFields": [
        "perumal",
        "thaayaar",
        "wikidata_qid"
      ],
      "currentData": {
        "perumal": "Unknown",
        "thaayaar": null,
        "district": "Kanchipuram",
        "locality": "Elumiyankottur",
        "wikidata_qid": null,
        "coordinates": "13.05, 79.8"
      }
    },
    {
      "index": 22,
      "name": "Aranyeswarar Temple, Keezhthirukkattuppalli",
      "displayName": "Aranyeswarar Temple, Keezhthirukkattuppalli",
      "missingFields": [
        "perumal",
        "thaayaar",
        "wikidata_qid"
      ],
      "currentData": {
        "perumal": "Unknown",
        "thaayaar": null,
        "district": "Mayiladuthurai",
        "locality": "Keezhthirukkattuppalli",
        "wikidata_qid": null,
        "coordinates": "11.171, 79.834"
      }
    },
    {
      "index": 23,
      "name": "Arasaleeswarar Temple, Vada Thiruarasur",
      "displayName": "Arasaleeswarar Temple, Vada Thiruarasur",
      "missingFields": [
        "perumal",
        "thaayaar",
        "wikidata_qid"
      ],
      "currentData": {
        "perumal": "Unknown",
        "thaayaar": null,
        "district": "Tiruvannamalai",
        "locality": "Vada Thiruarasur",
        "wikidata_qid": null,
        "coordinates": "12.23, 79.32"
      }
    },
    {
      "index": 24,
      "name": "Arathurai Nathar Temple, Thirunelvayil",
      "displayName": "Arathurai Nathar Temple, Thirunelvayil",
      "missingFields": [
        "perumal",
        "thaayaar",
        "wikidata_qid"
      ],
      "currentData": {
        "perumal": "Unknown",
        "thaayaar": null,
        "district": "Cuddalore",
        "locality": "Thirunelvayil",
        "wikidata_qid": null,
        "coordinates": "11.4682, 79.6251"
      }
    },
    {
      "index": 25,
      "name": "Ardhanareeswarar Temple, Thiruchengodu",
      "displayName": "Ardhanareeswarar Temple, Thiruchengodu",
      "missingFields": [
        "perumal",
        "thaayaar",
        "wikidata_qid"
      ],
      "currentData": {
        "perumal": "Unknown",
        "thaayaar": null,
        "district": "Namakkal",
        "locality": "Tiruchengode",
        "wikidata_qid": null,
        "coordinates": "11.38, 77.9"
      }
    },
    {
      "index": 26,
      "name": "Arulmozhitheechuram Temple, Nallur",
      "displayName": "Arulmozhitheechuram Temple, Nallur",
      "missingFields": [
        "perumal",
        "thaayaar",
        "wikidata_qid"
      ],
      "currentData": {
        "perumal": "Unknown",
        "thaayaar": null,
        "district": "Cuddalore",
        "locality": "Nallur",
        "wikidata_qid": null,
        "coordinates": "11.4583, 79.3094"
      }
    },
    {
      "index": 27,
      "name": "Arunachaleswarar Temple, Tiruvannamalai",
      "displayName": "Arunachaleswarar Temple, Tiruvannamalai",
      "missingFields": [
        "perumal",
        "thaayaar",
        "wikidata_qid"
      ],
      "currentData": {
        "perumal": "Unknown",
        "thaayaar": null,
        "district": "Tiruvannamalai",
        "locality": "Tiruvannamalai",
        "wikidata_qid": null,
        "coordinates": "12.2319, 79.0677"
      }
    },
    {
      "index": 28,
      "name": "Arunajadeswarar Temple, Thiruppanandal",
      "displayName": "Arunajadeswarar Temple, Thiruppanandal",
      "missingFields": [
        "perumal",
        "thaayaar",
        "wikidata_qid"
      ],
      "currentData": {
        "perumal": "Unknown",
        "thaayaar": null,
        "district": "Thanjavur",
        "locality": "Thiruppanandal",
        "wikidata_qid": null,
        "coordinates": "11.096, 79.467"
      }
    },
    {
      "index": 29,
      "name": "Atcheeswarar Temple, Achirupakkam",
      "displayName": "Atcheeswarar Temple, Achirupakkam",
      "missingFields": [
        "perumal",
        "thaayaar",
        "wikidata_qid"
      ],
      "currentData": {
        "perumal": "Unknown",
        "thaayaar": null,
        "district": "Chengalpattu",
        "locality": "Acharapakkam",
        "wikidata_qid": null,
        "coordinates": "12.38, 79.78"
      }
    },
    {
      "index": 30,
      "name": "Athmanatheswarar Temple, Thiruvalampozhil",
      "displayName": "Athmanatheswarar Temple, Thiruvalampozhil",
      "missingFields": [
        "perumal",
        "thaayaar",
        "wikidata_qid"
      ],
      "currentData": {
        "perumal": "Unknown",
        "thaayaar": null,
        "district": "Thanjavur",
        "locality": "Thiruvalampozhil",
        "wikidata_qid": null,
        "coordinates": "10.833, 79.016"
      }
    },
    {
      "index": 31,
      "name": "Atmanathar Temple, Thiru Alampozhil",
      "displayName": "Atmanathar Temple, Thiru Alampozhil",
      "missingFields": [
        "perumal",
        "thaayaar",
        "wikidata_qid"
      ],
      "currentData": {
        "perumal": "Unknown",
        "thaayaar": null,
        "district": "Thanjavur",
        "locality": "Thiruvalampozhil",
        "wikidata_qid": null,
        "coordinates": "10.833, 79.016"
      }
    },
    {
      "index": 32,
      "name": "Avinasiappar Temple, Avinashi",
      "displayName": "Avinasiappar Temple, Avinashi",
      "missingFields": [
        "perumal",
        "thaayaar",
        "wikidata_qid"
      ],
      "currentData": {
        "perumal": "Unknown",
        "thaayaar": null,
        "district": "Tiruppur",
        "locality": "Avinashi",
        "wikidata_qid": null,
        "coordinates": "11.1687, 77.1706"
      }
    },
    {
      "index": 33,
      "name": "Ayavandeeswarar Temple, Sathamangai",
      "displayName": "Ayavandeeswarar Temple, Sathamangai",
      "missingFields": [
        "perumal",
        "thaayaar",
        "wikidata_qid"
      ],
      "currentData": {
        "perumal": "Unknown",
        "thaayaar": null,
        "district": "Nagapattinam",
        "locality": "Sathamangai",
        "wikidata_qid": null,
        "coordinates": "10.835, 79.774"
      }
    },
    {
      "index": 34,
      "name": "Azhagiyanathar Temple, Thirukurakkukka",
      "displayName": "Azhagiyanathar Temple, Thirukurakkukka",
      "missingFields": [
        "perumal",
        "thaayaar",
        "wikidata_qid"
      ],
      "currentData": {
        "perumal": "Unknown",
        "thaayaar": null,
        "district": "Mayiladuthurai",
        "locality": "Kurakkukka",
        "wikidata_qid": null,
        "coordinates": "11.125, 79.558"
      }
    },
    {
      "index": 35,
      "name": "Brahmapureeswarar Temple, Ambar",
      "displayName": "Brahmapureeswarar Temple, Ambar",
      "missingFields": [
        "perumal",
        "thaayaar",
        "wikidata_qid"
      ],
      "currentData": {
        "perumal": "Unknown",
        "thaayaar": null,
        "district": "Mayiladuthurai",
        "locality": "Ambal",
        "wikidata_qid": null,
        "coordinates": "11.02, 79.73"
      }
    },
    {
      "index": 36,
      "name": "Brahmapureeswarar Temple, Karunjeevi",
      "displayName": "Brahmapureeswarar Temple, Karunjeevi",
      "missingFields": [
        "perumal",
        "thaayaar",
        "wikidata_qid"
      ],
      "currentData": {
        "perumal": "Unknown",
        "thaayaar": null,
        "district": "Thiruvarur",
        "locality": "Karuveeli",
        "wikidata_qid": null,
        "coordinates": "10.87, 79.52"
      }
    },
    {
      "index": 37,
      "name": "Brahmapureeswarar Temple, Manthai",
      "displayName": "Brahmapureeswarar Temple, Manthai",
      "missingFields": [
        "perumal",
        "thaayaar",
        "wikidata_qid"
      ],
      "currentData": {
        "perumal": "Unknown",
        "thaayaar": null,
        "district": "Mayiladuthurai",
        "locality": "Thirunraiyur",
        "wikidata_qid": null,
        "coordinates": "11.31, 79.52"
      }
    },
    {
      "index": 38,
      "name": "Chakravageswarar Temple",
      "displayName": "Chakravageswarar Temple",
      "missingFields": [
        "perumal",
        "thaayaar"
      ],
      "currentData": {
        "perumal": "Unknown",
        "thaayaar": null,
        "district": "Thanjavur",
        "locality": "Chakkarapalli",
        "wikidata_qid": "Q5068410",
        "coordinates": "10.9007, 79.1968"
      }
    },
    {
      "index": 39,
      "name": "Chakravageswarar Temple, Sakkarappalli",
      "displayName": "Chakravageswarar Temple, Sakkarappalli",
      "missingFields": [
        "perumal",
        "thaayaar",
        "wikidata_qid"
      ],
      "currentData": {
        "perumal": "Unknown",
        "thaayaar": null,
        "district": "Thanjavur",
        "locality": "Chakrapalli",
        "wikidata_qid": null,
        "coordinates": "10.88, 79.18"
      }
    },
    {
      "index": 40,
      "name": "Chakravageswarar Temple, Thiruppalamanam",
      "displayName": "Chakravageswarar Temple, Thiruppalamanam",
      "missingFields": [
        "perumal",
        "thaayaar",
        "wikidata_qid"
      ],
      "currentData": {
        "perumal": "Unknown",
        "thaayaar": null,
        "district": "Thanjavur",
        "locality": "Thirupalanam",
        "wikidata_qid": null,
        "coordinates": "10.902, 79.133"
      }
    },
    {
      "index": 41,
      "name": "Chakravarthi Thirumagan",
      "displayName": "Chakravarthi Thirumagan",
      "missingFields": [
        "perumal",
        "thaayaar",
        "district",
        "wikidata_qid"
      ],
      "currentData": {
        "perumal": "Unknown",
        "thaayaar": null,
        "district": null,
        "locality": "Vaduvur",
        "wikidata_qid": null,
        "coordinates": "10.7184862, 79.3172669"
      }
    },
    {
      "index": 42,
      "name": "Chathuranga Vallabanathar Temple",
      "displayName": "Chathuranga Vallabanathar Temple",
      "missingFields": [
        "perumal",
        "thaayaar",
        "wikidata_qid"
      ],
      "currentData": {
        "perumal": "Unknown",
        "thaayaar": null,
        "district": "Thiruvarur",
        "locality": "Poovanur",
        "wikidata_qid": null,
        "coordinates": "10.763, 79.518"
      }
    },
    {
      "index": 43,
      "name": "Chayavaneswarar Temple, Chaikkadu",
      "displayName": "Chayavaneswarar Temple, Chaikkadu",
      "missingFields": [
        "perumal",
        "thaayaar",
        "wikidata_qid"
      ],
      "currentData": {
        "perumal": "Unknown",
        "thaayaar": null,
        "district": "Mayiladuthurai",
        "locality": "Sayavanam",
        "wikidata_qid": null,
        "coordinates": "11.233, 79.839"
      }
    },
    {
      "index": 44,
      "name": "Chayavaneswarar Temple, Chayavanam",
      "displayName": "Chayavaneswarar Temple, Chayavanam",
      "missingFields": [
        "perumal",
        "thaayaar",
        "wikidata_qid"
      ],
      "currentData": {
        "perumal": "Unknown",
        "thaayaar": null,
        "district": "Mayiladuthurai",
        "locality": "Sayavanam",
        "wikidata_qid": null,
        "coordinates": "11.233, 79.839"
      }
    },
    {
      "index": 45,
      "name": "Devapureeswarar Temple, Thevur",
      "displayName": "Devapureeswarar Temple, Thevur",
      "missingFields": [
        "perumal",
        "thaayaar",
        "wikidata_qid"
      ],
      "currentData": {
        "perumal": "Unknown",
        "thaayaar": null,
        "district": "Nagapattinam",
        "locality": "Thevur",
        "wikidata_qid": null,
        "coordinates": "10.785, 79.704"
      }
    },
    {
      "index": 46,
      "name": "Dharmapureeswarar Temple, Dharmapuram",
      "displayName": "Dharmapureeswarar Temple, Dharmapuram",
      "missingFields": [
        "perumal",
        "thaayaar",
        "wikidata_qid"
      ],
      "currentData": {
        "perumal": "Unknown",
        "thaayaar": null,
        "district": "Karaikal",
        "locality": "Thirudharmapuram",
        "wikidata_qid": null,
        "coordinates": "10.97, 79.77"
      }
    },
    {
      "index": 47,
      "name": "Edakanathar Temple, Thiruvedagam",
      "displayName": "Edakanathar Temple, Thiruvedagam",
      "missingFields": [
        "perumal",
        "thaayaar",
        "wikidata_qid"
      ],
      "currentData": {
        "perumal": "Unknown",
        "thaayaar": null,
        "district": "Madurai",
        "locality": "Thiruvedagam",
        "wikidata_qid": null,
        "coordinates": "9.98, 78.02"
      }
    },
    {
      "index": 48,
      "name": "Ekambareswarar Temple, Kanchipuram",
      "displayName": "Ekambareswarar Temple, Kanchipuram",
      "missingFields": [
        "perumal",
        "thaayaar",
        "wikidata_qid"
      ],
      "currentData": {
        "perumal": "Unknown",
        "thaayaar": null,
        "district": "Kanchipuram",
        "locality": "Kanchipuram",
        "wikidata_qid": null,
        "coordinates": "12.8475, 79.7006"
      }
    },
    {
      "index": 49,
      "name": "Erumbeeswarar Temple, Thiruverumbur",
      "displayName": "Erumbeeswarar Temple, Thiruverumbur",
      "missingFields": [
        "perumal",
        "thaayaar",
        "wikidata_qid"
      ],
      "currentData": {
        "perumal": "Unknown",
        "thaayaar": null,
        "district": "Tiruchirappalli",
        "locality": "Thiruverumbur",
        "wikidata_qid": null,
        "coordinates": "10.776, 78.756"
      }
    },
    {
      "index": 50,
      "name": "Ezhutharinathar Temple, Innambur",
      "displayName": "Ezhutharinathar Temple, Innambur",
      "missingFields": [
        "thaayaar",
        "wikidata_qid"
      ],
      "currentData": {
        "perumal": "Ezhutharinathar (Shiva)",
        "thaayaar": null,
        "district": "Thanjavur",
        "locality": "Innambur",
        "wikidata_qid": null,
        "coordinates": "10.9669, 79.2997"
      }
    },
    {
      "index": 51,
      "name": "Ghritasthaneswara Temple, Thillaisthanam",
      "displayName": "Ghritasthaneswara Temple, Thillaisthanam",
      "missingFields": [
        "perumal",
        "thaayaar",
        "wikidata_qid"
      ],
      "currentData": {
        "perumal": "Unknown",
        "thaayaar": null,
        "district": "Thanjavur",
        "locality": "Thillaisthanam",
        "wikidata_qid": null,
        "coordinates": "10.893, 79.083"
      }
    },
    {
      "index": 52,
      "name": "Gnanapureeswarar Temple, Thiruvadisoolam",
      "displayName": "Gnanapureeswarar Temple, Thiruvadisoolam",
      "missingFields": [
        "perumal",
        "thaayaar",
        "wikidata_qid"
      ],
      "currentData": {
        "perumal": "Unknown",
        "thaayaar": null,
        "district": "Chengalpattu",
        "locality": "Thiruvadisoolam",
        "wikidata_qid": null,
        "coordinates": "12.73, 79.92"
      }
    },
    {
      "index": 53,
      "name": "Gomuktheeswarar Temple, Thiruvaduthurai",
      "displayName": "Gomuktheeswarar Temple, Thiruvaduthurai",
      "missingFields": [
        "perumal",
        "thaayaar",
        "wikidata_qid"
      ],
      "currentData": {
        "perumal": "Unknown",
        "thaayaar": null,
        "district": "Mayiladuthurai",
        "locality": "Thiruvavaduthurai",
        "wikidata_qid": null,
        "coordinates": "11.05, 79.52"
      }
    },
    {
      "index": 54,
      "name": "Gunja Narasimha Swamy",
      "displayName": "Gunja Narasimha Swamy",
      "missingFields": [
        "perumal",
        "thaayaar"
      ],
      "currentData": {
        "perumal": "Unknown",
        "thaayaar": null,
        "district": "Mysuru",
        "locality": "T. Narasipura",
        "wikidata_qid": "Q24906641",
        "coordinates": "12.2134628, 76.9027763"
      }
    },
    {
      "index": 55,
      "name": "Guruvayur Sri Krishna Temple",
      "displayName": "Guruvayur Sri Krishna Temple",
      "missingFields": [
        "perumal",
        "thaayaar"
      ],
      "currentData": {
        "perumal": "Unknown",
        "thaayaar": null,
        "district": "Thrissur",
        "locality": "Guruvayur",
        "wikidata_qid": "Q2666459",
        "coordinates": "10.595, 76.039444"
      }
    },
    {
      "index": 56,
      "name": "Hridayakamalanathar Temple, Valivalam",
      "displayName": "Hridayakamalanathar Temple, Valivalam",
      "missingFields": [
        "perumal",
        "thaayaar",
        "wikidata_qid"
      ],
      "currentData": {
        "perumal": "Unknown",
        "thaayaar": null,
        "district": "Thiruvarur",
        "locality": "Valivalam",
        "wikidata_qid": null,
        "coordinates": "10.63, 79.7"
      }
    },
    {
      "index": 57,
      "name": "Idumbavaneswarar Temple, Idumbavanam",
      "displayName": "Idumbavaneswarar Temple, Idumbavanam",
      "missingFields": [
        "perumal",
        "thaayaar",
        "wikidata_qid"
      ],
      "currentData": {
        "perumal": "Unknown",
        "thaayaar": null,
        "district": "Thiruvarur",
        "locality": "Idumbavanam",
        "wikidata_qid": null,
        "coordinates": "10.428, 79.721"
      }
    },
    {
      "index": 58,
      "name": "Imayil Nanmai Tharuvar Temple, Madurai",
      "displayName": "Imayil Nanmai Tharuvar Temple, Madurai",
      "missingFields": [
        "perumal",
        "thaayaar",
        "wikidata_qid"
      ],
      "currentData": {
        "perumal": "Unknown",
        "thaayaar": null,
        "district": "Madurai",
        "locality": "Madurai",
        "wikidata_qid": null,
        "coordinates": "9.919, 78.119"
      }
    },
    {
      "index": 59,
      "name": "Iravadeeswarar Temple, Vanparthanpanamkotur",
      "displayName": "Iravadeeswarar Temple, Vanparthanpanamkotur",
      "missingFields": [
        "perumal",
        "thaayaar",
        "wikidata_qid"
      ],
      "currentData": {
        "perumal": "Unknown",
        "thaayaar": null,
        "district": "Ranipet",
        "locality": "Thirumalper",
        "wikidata_qid": null,
        "coordinates": "12.92, 79.58"
      }
    },
    {
      "index": 60,
      "name": "Iravatheeswarar Temple",
      "displayName": "Iravatheeswarar Temple",
      "missingFields": [
        "perumal",
        "thaayaar"
      ],
      "currentData": {
        "perumal": "Unknown",
        "thaayaar": null,
        "district": "Mayiladuthurai",
        "locality": "Mela Thirumanancheri",
        "wikidata_qid": "Q6068324",
        "coordinates": "11.108, 79.526"
      }
    },
    {
      "index": 61,
      "name": "Jagadeeswarar Temple, Pereyil",
      "displayName": "Jagadeeswarar Temple, Pereyil",
      "missingFields": [
        "perumal",
        "thaayaar",
        "wikidata_qid"
      ],
      "currentData": {
        "perumal": "Unknown",
        "thaayaar": null,
        "district": "Thiruvarur",
        "locality": "Koil Kannapur",
        "wikidata_qid": null,
        "coordinates": "10.87, 79.7"
      }
    },
    {
      "index": 62,
      "name": "Jagannathan",
      "displayName": "Jagannathan",
      "missingFields": [
        "perumal",
        "thaayaar"
      ],
      "currentData": {
        "perumal": "Unknown",
        "thaayaar": null,
        "district": "Chennai district",
        "locality": "Thirumazhisai",
        "wikidata_qid": "Q3530296",
        "coordinates": "13.0606045, 80.2453386"
      }
    },
    {
      "index": 63,
      "name": "Jalanatheeswarar Temple, Thakkolam",
      "displayName": "Jalanatheeswarar Temple, Thakkolam",
      "missingFields": [
        "perumal",
        "thaayaar",
        "wikidata_qid"
      ],
      "currentData": {
        "perumal": "Unknown",
        "thaayaar": null,
        "district": "Ranipet",
        "locality": "Thakkolam",
        "wikidata_qid": null,
        "coordinates": "13.03, 79.72"
      }
    },
    {
      "index": 64,
      "name": "Jambukeswarar Temple, Thiruvanaikaval",
      "displayName": "Jambukeswarar Temple, Thiruvanaikaval",
      "missingFields": [
        "perumal",
        "thaayaar",
        "wikidata_qid"
      ],
      "currentData": {
        "perumal": "Unknown",
        "thaayaar": null,
        "district": "Tiruchirappalli",
        "locality": "Thiruvanaikaval",
        "wikidata_qid": null,
        "coordinates": "10.8534, 78.7054"
      }
    },
    {
      "index": 65,
      "name": "Jnanaparameswarar Temple, Thirukkanamangai",
      "displayName": "Jnanaparameswarar Temple, Thirukkanamangai",
      "missingFields": [
        "perumal",
        "thaayaar",
        "wikidata_qid"
      ],
      "currentData": {
        "perumal": "Unknown",
        "thaayaar": null,
        "district": "Thiruvarur",
        "locality": "Thirukanamangai",
        "wikidata_qid": null,
        "coordinates": "10.744, 79.676"
      }
    },
    {
      "index": 66,
      "name": "Kadaimudinathar Temple, Keezhaiyur",
      "displayName": "Kadaimudinathar Temple, Keezhaiyur",
      "missingFields": [
        "perumal",
        "thaayaar",
        "wikidata_qid"
      ],
      "currentData": {
        "perumal": "Unknown",
        "thaayaar": null,
        "district": "Nagapattinam",
        "locality": "Keezhaiyur",
        "wikidata_qid": null,
        "coordinates": "11.13, 79.82"
      }
    },
    {
      "index": 67,
      "name": "Kadambar Koil",
      "displayName": "Kadambar Koil",
      "missingFields": [
        "perumal",
        "thaayaar",
        "wikidata_qid"
      ],
      "currentData": {
        "perumal": "Unknown",
        "thaayaar": null,
        "district": "Mayiladuthurai",
        "locality": "Iluppaippattu",
        "wikidata_qid": null,
        "coordinates": "11.164, 79.6"
      }
    },
    {
      "index": 68,
      "name": "Kaichineswarar Temple, Kachanam",
      "displayName": "Kaichineswarar Temple, Kachanam",
      "missingFields": [
        "perumal",
        "thaayaar",
        "wikidata_qid"
      ],
      "currentData": {
        "perumal": "Unknown",
        "thaayaar": null,
        "district": "Thiruvarur",
        "locality": "Kachanam",
        "wikidata_qid": null,
        "coordinates": "10.68, 79.75"
      }
    },
    {
      "index": 69,
      "name": "Kailasanathar Temple, Kanchipuram",
      "displayName": "Kailasanathar Temple, Kanchipuram",
      "missingFields": [
        "perumal",
        "thaayaar"
      ],
      "currentData": {
        "perumal": "Unknown",
        "thaayaar": null,
        "district": "Kanchipuram",
        "locality": "Kanchipuram",
        "wikidata_qid": "Q2728976",
        "coordinates": "12.84, 79.69"
      }
    },
    {
      "index": 70,
      "name": "Kailasanathar Temple, Kanchivayil",
      "displayName": "Kailasanathar Temple, Kanchivayil",
      "missingFields": [
        "perumal",
        "thaayaar",
        "wikidata_qid"
      ],
      "currentData": {
        "perumal": "Unknown",
        "thaayaar": null,
        "district": "Sivaganga",
        "locality": "Kandavarayanpatti",
        "wikidata_qid": null,
        "coordinates": "9.873, 78.718"
      }
    },
    {
      "index": 71,
      "name": "Kailasanathar Temple, Mount Kailash",
      "displayName": "Kailasanathar Temple, Mount Kailash",
      "missingFields": [
        "perumal",
        "thaayaar",
        "wikidata_qid"
      ],
      "currentData": {
        "perumal": "Unknown",
        "thaayaar": null,
        "district": "Ngari Prefecture",
        "locality": "Mount Kailash",
        "wikidata_qid": null,
        "coordinates": "31.066, 81.312"
      }
    },
    {
      "index": 72,
      "name": "Kaleeswarar Temple, Kalaiyarkoil",
      "displayName": "Kaleeswarar Temple, Kalaiyarkoil",
      "missingFields": [
        "perumal",
        "thaayaar",
        "wikidata_qid"
      ],
      "currentData": {
        "perumal": "Unknown",
        "thaayaar": null,
        "district": "Sivaganga",
        "locality": "Kalayarkoil",
        "wikidata_qid": null,
        "coordinates": "9.83, 78.62"
      }
    },
    {
      "index": 73,
      "name": "Kalyanasundareswarar Temple, Thirunallur",
      "displayName": "Kalyanasundareswarar Temple, Thirunallur",
      "missingFields": [
        "perumal",
        "thaayaar",
        "wikidata_qid"
      ],
      "currentData": {
        "perumal": "Unknown",
        "thaayaar": null,
        "district": "Thiruvarur",
        "locality": "Nallur",
        "wikidata_qid": null,
        "coordinates": "10.88, 79.5"
      }
    },
    {
      "index": 74,
      "name": "Kamakoashtam Perumal",
      "displayName": "Kamakoashtam Perumal",
      "missingFields": [
        "perumal",
        "thaayaar",
        "district",
        "wikidata_qid"
      ],
      "currentData": {
        "perumal": "Unknown",
        "thaayaar": null,
        "district": null,
        "locality": "Kanchipuram",
        "wikidata_qid": null,
        "coordinates": "12.9647163, 79.9839686"
      }
    },
    {
      "index": 75,
      "name": "Kannayiramudaiyar Temple",
      "displayName": "Kannayiramudaiyar Temple",
      "missingFields": [
        "perumal",
        "thaayaar",
        "wikidata_qid"
      ],
      "currentData": {
        "perumal": "Unknown",
        "thaayaar": null,
        "district": "Thiruvarur",
        "locality": "Thirukkanapuram",
        "wikidata_qid": null,
        "coordinates": "10.8703, 79.7042"
      }
    },
    {
      "index": 76,
      "name": "Kanneeswarar Temple, Thiruvalapoor",
      "displayName": "Kanneeswarar Temple, Thiruvalapoor",
      "missingFields": [
        "perumal",
        "thaayaar",
        "wikidata_qid"
      ],
      "currentData": {
        "perumal": "Unknown",
        "thaayaar": null,
        "district": "Cuddalore",
        "locality": "Thiruvalapoor",
        "wikidata_qid": null,
        "coordinates": "11.660143, 79.352467"
      }
    },
    {
      "index": 77,
      "name": "Kanneswarar Temple, Thirukurakkaval",
      "displayName": "Kanneswarar Temple, Thirukurakkaval",
      "missingFields": [
        "perumal",
        "thaayaar",
        "wikidata_qid"
      ],
      "currentData": {
        "perumal": "Unknown",
        "thaayaar": null,
        "district": "Mayiladuthurai",
        "locality": "Thirukurakkaval",
        "wikidata_qid": null,
        "coordinates": "11.155, 79.62"
      }
    },
    {
      "index": 78,
      "name": "Kapaleeshwarar Temple, Mylapore",
      "displayName": "Kapaleeshwarar Temple, Mylapore",
      "missingFields": [
        "perumal",
        "thaayaar",
        "wikidata_qid"
      ],
      "currentData": {
        "perumal": "Unknown",
        "thaayaar": null,
        "district": "Chennai",
        "locality": "Mylapore",
        "wikidata_qid": null,
        "coordinates": "13.0337, 80.27"
      }
    },
    {
      "index": 79,
      "name": "Karaveereswarar Temple, Karaveeram",
      "displayName": "Karaveereswarar Temple, Karaveeram",
      "missingFields": [
        "perumal",
        "thaayaar",
        "wikidata_qid"
      ],
      "currentData": {
        "perumal": "Unknown",
        "thaayaar": null,
        "district": "Thiruvarur",
        "locality": "Karaviram",
        "wikidata_qid": null,
        "coordinates": "10.71, 79.67"
      }
    },
    {
      "index": 80,
      "name": "Karpaganathar Temple",
      "displayName": "Karpaganathar Temple",
      "missingFields": [
        "perumal",
        "thaayaar",
        "wikidata_qid"
      ],
      "currentData": {
        "perumal": "Unknown",
        "thaayaar": null,
        "district": "Thanjavur",
        "locality": "Thiruvalanchuzhi",
        "wikidata_qid": null,
        "coordinates": "10.9575, 79.3069"
      }
    },
    {
      "index": 81,
      "name": "Karpaganathar Temple, Thirukkadikulam",
      "displayName": "Karpaganathar Temple, Thirukkadikulam",
      "missingFields": [
        "perumal",
        "thaayaar",
        "wikidata_qid"
      ],
      "currentData": {
        "perumal": "Unknown",
        "thaayaar": null,
        "district": "Thanjavur",
        "locality": "Thiruvalanchuzhi",
        "wikidata_qid": null,
        "coordinates": "10.95, 79.3"
      }
    },
    {
      "index": 82,
      "name": "Karunakara Perumal",
      "displayName": "Karunakara Perumal",
      "missingFields": [
        "perumal",
        "thaayaar",
        "district",
        "wikidata_qid"
      ],
      "currentData": {
        "perumal": "Unknown",
        "thaayaar": null,
        "district": null,
        "locality": "Madurantakam",
        "wikidata_qid": null,
        "coordinates": "12.5081836, 79.8882285"
      }
    },
    {
      "index": 83,
      "name": "Karunjeeveeswarar Temple",
      "displayName": "Karunjeeveeswarar Temple",
      "missingFields": [
        "thaayaar",
        "wikidata_qid"
      ],
      "currentData": {
        "perumal": "Karunjeeveeswarar (Shiva)",
        "thaayaar": null,
        "district": "Thiruvarur",
        "locality": "Karuveeli",
        "wikidata_qid": null,
        "coordinates": "10.871, 79.519"
      }
    },
    {
      "index": 84,
      "name": "Kayarohanaswamy Temple, Nagapattinam",
      "displayName": "Kayarohanaswamy Temple, Nagapattinam",
      "missingFields": [
        "perumal",
        "thaayaar",
        "wikidata_qid"
      ],
      "currentData": {
        "perumal": "Unknown",
        "thaayaar": null,
        "district": "Nagapattinam",
        "locality": "Nagapattinam",
        "wikidata_qid": null,
        "coordinates": "10.763, 79.845"
      }
    },
    {
      "index": 85,
      "name": "Kedarnath Temple, Kedarnath",
      "displayName": "Kedarnath Temple, Kedarnath",
      "missingFields": [
        "perumal",
        "thaayaar",
        "wikidata_qid"
      ],
      "currentData": {
        "perumal": "Unknown",
        "thaayaar": null,
        "district": "Rudraprayag",
        "locality": "Kedarnath",
        "wikidata_qid": null,
        "coordinates": "30.735, 79.066"
      }
    },
    {
      "index": 86,
      "name": "Kediliappar Temple, Keezhvelur",
      "displayName": "Kediliappar Temple, Keezhvelur",
      "missingFields": [
        "perumal",
        "thaayaar",
        "wikidata_qid"
      ],
      "currentData": {
        "perumal": "Unknown",
        "thaayaar": null,
        "district": "Nagapattinam",
        "locality": "Keezhvelur",
        "wikidata_qid": null,
        "coordinates": "10.722, 79.742"
      }
    },
    {
      "index": 87,
      "name": "Keezhthirukkattuppalli Aranyeswarar Temple",
      "displayName": "Keezhthirukkattuppalli Aranyeswarar Temple",
      "missingFields": [
        "perumal",
        "thaayaar",
        "wikidata_qid"
      ],
      "currentData": {
        "perumal": "Unknown",
        "thaayaar": null,
        "district": "Mayiladuthurai",
        "locality": "Keezhthirukkattuppalli",
        "wikidata_qid": null,
        "coordinates": "11.171, 79.834"
      }
    },
    {
      "index": 88,
      "name": "Ketheeswarar Temple, Thiruketheeswaram",
      "displayName": "Ketheeswarar Temple, Thiruketheeswaram",
      "missingFields": [
        "perumal",
        "thaayaar",
        "wikidata_qid"
      ],
      "currentData": {
        "perumal": "Unknown",
        "thaayaar": null,
        "district": "Mannar",
        "locality": "Mannar",
        "wikidata_qid": null,
        "coordinates": "8.981, 79.914"
      }
    },
    {
      "index": 89,
      "name": "Kirupaipureeswarar Temple, Tiruvennainallur",
      "displayName": "Kirupaipureeswarar Temple, Tiruvennainallur",
      "missingFields": [
        "perumal",
        "thaayaar",
        "wikidata_qid"
      ],
      "currentData": {
        "perumal": "Unknown",
        "thaayaar": null,
        "district": "Viluppuram",
        "locality": "Tiruvennainallur",
        "wikidata_qid": null,
        "coordinates": "11.85, 79.47"
      }
    },
    {
      "index": 90,
      "name": "Kodeeswarar Temple, Kottaiyur",
      "displayName": "Kodeeswarar Temple, Kottaiyur",
      "missingFields": [
        "perumal",
        "thaayaar",
        "wikidata_qid"
      ],
      "currentData": {
        "perumal": "Unknown",
        "thaayaar": null,
        "district": "Sivaganga",
        "locality": "Kottaiyur",
        "wikidata_qid": null,
        "coordinates": "10.08, 78.8"
      }
    },
    {
      "index": 91,
      "name": "Kodeeswarar Temple, Thirukkodikkaval",
      "displayName": "Kodeeswarar Temple, Thirukkodikkaval",
      "missingFields": [
        "perumal",
        "thaayaar",
        "wikidata_qid"
      ],
      "currentData": {
        "perumal": "Unknown",
        "thaayaar": null,
        "district": "Thanjavur",
        "locality": "Thirukodukaval",
        "wikidata_qid": null,
        "coordinates": "11.03, 79.45"
      }
    },
    {
      "index": 92,
      "name": "Kodunkundranathar Temple, Piranmalai",
      "displayName": "Kodunkundranathar Temple, Piranmalai",
      "missingFields": [
        "perumal",
        "thaayaar",
        "wikidata_qid"
      ],
      "currentData": {
        "perumal": "Unknown",
        "thaayaar": null,
        "district": "Sivaganga",
        "locality": "Piranmalai",
        "wikidata_qid": null,
        "coordinates": "10.1, 78.43"
      }
    },
    {
      "index": 93,
      "name": "Kokileswarar Temple, Thiru Kozhambam",
      "displayName": "Kokileswarar Temple, Thiru Kozhambam",
      "missingFields": [
        "perumal",
        "thaayaar",
        "wikidata_qid"
      ],
      "currentData": {
        "perumal": "Unknown",
        "thaayaar": null,
        "district": "Cuddalore",
        "locality": "Kozhambam",
        "wikidata_qid": null,
        "coordinates": "11.196, 79.431"
      }
    },
    {
      "index": 94,
      "name": "Kolavamanar",
      "displayName": "Kolavamanar",
      "missingFields": [
        "perumal",
        "thaayaar",
        "district",
        "wikidata_qid"
      ],
      "currentData": {
        "perumal": "Unknown",
        "thaayaar": null,
        "district": null,
        "locality": "Sikkal (near Nagapattinam)",
        "wikidata_qid": null,
        "coordinates": "10.7672, 79.8449"
      }
    },
    {
      "index": 95,
      "name": "Koneswaram Temple, Trincomalee",
      "displayName": "Koneswaram Temple, Trincomalee",
      "missingFields": [
        "perumal",
        "thaayaar",
        "wikidata_qid"
      ],
      "currentData": {
        "perumal": "Unknown",
        "thaayaar": null,
        "district": "Trincomalee",
        "locality": "Trincomalee",
        "wikidata_qid": null,
        "coordinates": "8.582, 81.246"
      }
    },
    {
      "index": 96,
      "name": "Koneswarar Temple, Kudavasal",
      "displayName": "Koneswarar Temple, Kudavasal",
      "missingFields": [
        "perumal",
        "thaayaar"
      ],
      "currentData": {
        "perumal": "Unknown",
        "thaayaar": null,
        "district": "Thiruvarur",
        "locality": "Kudavasal",
        "wikidata_qid": "Q6429087",
        "coordinates": "10.83, 79.5"
      }
    },
    {
      "index": 97,
      "name": "Krupakupareswarar Temple, Thiruvazhamangalam",
      "displayName": "Krupakupareswarar Temple, Thiruvazhamangalam",
      "missingFields": [
        "perumal",
        "thaayaar",
        "wikidata_qid"
      ],
      "currentData": {
        "perumal": "Unknown",
        "thaayaar": null,
        "district": "Thanjavur",
        "locality": "Thiruvaikavur",
        "wikidata_qid": null,
        "coordinates": "11.02, 79.37"
      }
    },
    {
      "index": 98,
      "name": "Kutralanathar Temple, Courtallam",
      "displayName": "Kutralanathar Temple, Courtallam",
      "missingFields": [
        "perumal",
        "thaayaar",
        "wikidata_qid"
      ],
      "currentData": {
        "perumal": "Unknown",
        "thaayaar": null,
        "district": "Tenkasi",
        "locality": "Courtallam",
        "wikidata_qid": null,
        "coordinates": "8.9288, 77.2691"
      }
    },
    {
      "index": 99,
      "name": "Kutram Poruttha Nathar Temple",
      "displayName": "Kutram Poruttha Nathar Temple",
      "missingFields": [
        "perumal",
        "thaayaar",
        "wikidata_qid"
      ],
      "currentData": {
        "perumal": "Unknown",
        "thaayaar": null,
        "district": "Nagapattinam",
        "locality": "Thalaignayiru",
        "wikidata_qid": null,
        "coordinates": "11.159, 79.805"
      }
    },
    {
      "index": 100,
      "name": "Kuttram Poruttha Nathar Temple, Thalainayar",
      "displayName": "Kuttram Poruttha Nathar Temple, Thalainayar",
      "missingFields": [
        "perumal",
        "thaayaar",
        "wikidata_qid"
      ],
      "currentData": {
        "perumal": "Unknown",
        "thaayaar": null,
        "district": "Nagapattinam",
        "locality": "Thalaignayiru",
        "wikidata_qid": null,
        "coordinates": "11.159, 79.805"
      }
    },
    {
      "index": 101,
      "name": "Kuzhagar Temple, Kodiakkarai",
      "displayName": "Kuzhagar Temple, Kodiakkarai",
      "missingFields": [
        "perumal",
        "thaayaar",
        "wikidata_qid"
      ],
      "currentData": {
        "perumal": "Unknown",
        "thaayaar": null,
        "district": "Nagapattinam",
        "locality": "Kodiakkarai",
        "wikidata_qid": null,
        "coordinates": "10.3, 79.85"
      }
    },
    {
      "index": 102,
      "name": "Lakshmi Narasimhar",
      "displayName": "Lakshmi Narasimhar",
      "missingFields": [
        "perumal",
        "thaayaar"
      ],
      "currentData": {
        "perumal": "Unknown",
        "thaayaar": null,
        "district": "India",
        "locality": "Singaperumal Koil",
        "wikidata_qid": "Q7144201",
        "coordinates": "12.7711069, 79.8675049"
      }
    },
    {
      "index": 103,
      "name": "Maatruraivaradeeswarar Temple",
      "displayName": "Maatruraivaradeeswarar Temple",
      "missingFields": [
        "perumal",
        "thaayaar",
        "wikidata_qid"
      ],
      "currentData": {
        "perumal": "Unknown",
        "thaayaar": null,
        "district": "Tiruchirappalli",
        "locality": "Thiruppaithurai",
        "wikidata_qid": null,
        "coordinates": "10.834, 78.588"
      }
    },
    {
      "index": 104,
      "name": "Madhuvaneswarar Temple, Nannilam",
      "displayName": "Madhuvaneswarar Temple, Nannilam",
      "missingFields": [
        "thaayaar",
        "wikidata_qid"
      ],
      "currentData": {
        "perumal": "Madhuvaneswarar",
        "thaayaar": null,
        "district": "Thiruvarur",
        "locality": "Nannilam",
        "wikidata_qid": null,
        "coordinates": "10.7833, 79.6167"
      }
    },
    {
      "index": 105,
      "name": "Magaraleeswarar Temple, Magaral",
      "displayName": "Magaraleeswarar Temple, Magaral",
      "missingFields": [
        "perumal",
        "thaayaar",
        "wikidata_qid"
      ],
      "currentData": {
        "perumal": "Unknown",
        "thaayaar": null,
        "district": "Kanchipuram",
        "locality": "Magaral",
        "wikidata_qid": null,
        "coordinates": "12.7, 79.63"
      }
    },
    {
      "index": 106,
      "name": "Magudeswarar Temple, Kodumudi",
      "displayName": "Magudeswarar Temple, Kodumudi",
      "missingFields": [
        "perumal",
        "thaayaar",
        "wikidata_qid"
      ],
      "currentData": {
        "perumal": "Unknown",
        "thaayaar": null,
        "district": "Erode",
        "locality": "Kodumudi",
        "wikidata_qid": null,
        "coordinates": "11.08, 77.88"
      }
    },
    {
      "index": 107,
      "name": "Mahabaleshwarar Temple, Gokarna",
      "displayName": "Mahabaleshwarar Temple, Gokarna",
      "missingFields": [
        "perumal",
        "thaayaar",
        "wikidata_qid"
      ],
      "currentData": {
        "perumal": "Unknown",
        "thaayaar": null,
        "district": "Uttara Kannada",
        "locality": "Gokarna",
        "wikidata_qid": null,
        "coordinates": "14.542, 74.316"
      }
    },
    {
      "index": 108,
      "name": "Mahakalanathar Temple, Ambar",
      "displayName": "Mahakalanathar Temple, Ambar",
      "missingFields": [
        "perumal",
        "thaayaar",
        "wikidata_qid"
      ],
      "currentData": {
        "perumal": "Unknown",
        "thaayaar": null,
        "district": "Mayiladuthurai",
        "locality": "Thirumahalam",
        "wikidata_qid": null,
        "coordinates": "11.01, 79.74"
      }
    },
    {
      "index": 109,
      "name": "Mahakaleswarar Temple, Irumbai",
      "displayName": "Mahakaleswarar Temple, Irumbai",
      "missingFields": [
        "perumal",
        "thaayaar",
        "wikidata_qid"
      ],
      "currentData": {
        "perumal": "Unknown",
        "thaayaar": null,
        "district": "Viluppuram",
        "locality": "Irumbai",
        "wikidata_qid": null,
        "coordinates": "12.02, 79.8"
      }
    },
    {
      "index": 110,
      "name": "Mallikarjuna Temple, Srisailam",
      "displayName": "Mallikarjuna Temple, Srisailam",
      "missingFields": [
        "perumal",
        "thaayaar",
        "wikidata_qid"
      ],
      "currentData": {
        "perumal": "Unknown",
        "thaayaar": null,
        "district": "Nandyal",
        "locality": "Srisailam",
        "wikidata_qid": null,
        "coordinates": "16.073, 78.868"
      }
    },
    {
      "index": 111,
      "name": "Manapureeswarar Temple, Manappalli",
      "displayName": "Manapureeswarar Temple, Manappalli",
      "missingFields": [
        "perumal",
        "thaayaar",
        "wikidata_qid"
      ],
      "currentData": {
        "perumal": "Unknown",
        "thaayaar": null,
        "district": "Thiruvarur",
        "locality": "Manappalli",
        "wikidata_qid": null,
        "coordinates": "10.7495, 79.62"
      }
    },
    {
      "index": 112,
      "name": "Manavaleswarar Temple, Velvikudi",
      "displayName": "Manavaleswarar Temple, Velvikudi",
      "missingFields": [
        "perumal",
        "thaayaar",
        "wikidata_qid"
      ],
      "currentData": {
        "perumal": "Unknown",
        "thaayaar": null,
        "district": "Mayiladuthurai",
        "locality": "Velvikudi",
        "wikidata_qid": null,
        "coordinates": "11.116, 79.529"
      }
    },
    {
      "index": 113,
      "name": "Mangalanathaswamy Temple, Sirukudi",
      "displayName": "Mangalanathaswamy Temple, Sirukudi",
      "missingFields": [
        "perumal",
        "thaayaar",
        "wikidata_qid"
      ],
      "currentData": {
        "perumal": "Unknown",
        "thaayaar": null,
        "district": "Thiruvarur",
        "locality": "Sirukudi",
        "wikidata_qid": null,
        "coordinates": "10.88, 79.48"
      }
    },
    {
      "index": 114,
      "name": "Mangalanathaswamy Temple, Uthirakosamangai",
      "displayName": "Mangalanathaswamy Temple, Uthirakosamangai",
      "missingFields": [
        "perumal",
        "thaayaar",
        "wikidata_qid"
      ],
      "currentData": {
        "perumal": "Unknown",
        "thaayaar": null,
        "district": "Ramanathapuram",
        "locality": "Uthirakosamangai",
        "wikidata_qid": null,
        "coordinates": "9.28, 78.73"
      }
    },
    {
      "index": 115,
      "name": "Manickavannar Temple, Thirumarugal",
      "displayName": "Manickavannar Temple, Thirumarugal",
      "missingFields": [
        "perumal",
        "thaayaar",
        "wikidata_qid"
      ],
      "currentData": {
        "perumal": "Unknown",
        "thaayaar": null,
        "district": "Nagapattinam",
        "locality": "Thirumarugal",
        "wikidata_qid": null,
        "coordinates": "10.84, 79.752"
      }
    },
    {
      "index": 116,
      "name": "Manickavannar Temple, Vazhkoliputhur",
      "displayName": "Manickavannar Temple, Vazhkoliputhur",
      "missingFields": [
        "perumal",
        "thaayaar",
        "wikidata_qid"
      ],
      "currentData": {
        "perumal": "Unknown",
        "thaayaar": null,
        "district": "Mayiladuthurai",
        "locality": "Thiruvaazhkoliputhur",
        "wikidata_qid": null,
        "coordinates": "11.196, 79.742"
      }
    },
    {
      "index": 117,
      "name": "Marundeeswarar Temple, Thiruvanmiyur",
      "displayName": "Marundeeswarar Temple, Thiruvanmiyur",
      "missingFields": [
        "perumal",
        "thaayaar",
        "wikidata_qid"
      ],
      "currentData": {
        "perumal": "Unknown",
        "thaayaar": null,
        "district": "Chennai",
        "locality": "Thiruvanmiyur",
        "wikidata_qid": null,
        "coordinates": "12.984, 80.26"
      }
    },
    {
      "index": 118,
      "name": "Marutheeswarar Temple, Maruthampudur",
      "displayName": "Marutheeswarar Temple, Maruthampudur",
      "missingFields": [
        "perumal",
        "thaayaar",
        "wikidata_qid"
      ],
      "currentData": {
        "perumal": "Unknown",
        "thaayaar": null,
        "district": "Thiruvarur",
        "locality": "Maruthampudur",
        "wikidata_qid": null,
        "coordinates": "10.46, 79.62"
      }
    },
    {
      "index": 119,
      "name": "Maruthureeswarar Temple, Thiru Idaiyaru",
      "displayName": "Maruthureeswarar Temple, Thiru Idaiyaru",
      "missingFields": [
        "perumal",
        "thaayaar",
        "wikidata_qid"
      ],
      "currentData": {
        "perumal": "Unknown",
        "thaayaar": null,
        "district": "Viluppuram",
        "locality": "Thiruvennainallur",
        "wikidata_qid": null,
        "coordinates": "11.85, 79.47"
      }
    },
    {
      "index": 120,
      "name": "Matrugaya",
      "displayName": "Matrugaya",
      "missingFields": [
        "perumal",
        "thaayaar"
      ],
      "currentData": {
        "perumal": "Unknown",
        "thaayaar": null,
        "district": "Patan",
        "locality": "Siddhpur",
        "wikidata_qid": "Q2572203",
        "coordinates": "23.918279, 72.3681846"
      }
    },
    {
      "index": 121,
      "name": "Mayuranathar Temple, Mayiladuthurai",
      "displayName": "Mayuranathar Temple, Mayiladuthurai",
      "missingFields": [
        "perumal",
        "thaayaar",
        "wikidata_qid"
      ],
      "currentData": {
        "perumal": "Unknown",
        "thaayaar": null,
        "district": "Mayiladuthurai",
        "locality": "Mayiladuthurai",
        "wikidata_qid": null,
        "coordinates": "11.1012, 79.6521"
      }
    },
    {
      "index": 122,
      "name": "Meenakshi Sundareswarar Temple, Madurai",
      "displayName": "Meenakshi Sundareswarar Temple, Madurai",
      "missingFields": [
        "perumal",
        "thaayaar",
        "wikidata_qid"
      ],
      "currentData": {
        "perumal": "Unknown",
        "thaayaar": null,
        "district": "Madurai",
        "locality": "Madurai",
        "wikidata_qid": null,
        "coordinates": "9.9195, 78.1193"
      }
    },
    {
      "index": 123,
      "name": "Meganathaswamy Temple, Meeyachur",
      "displayName": "Meganathaswamy Temple, Meeyachur",
      "missingFields": [
        "perumal",
        "thaayaar",
        "wikidata_qid"
      ],
      "currentData": {
        "perumal": "Unknown",
        "thaayaar": null,
        "district": "Thiruvarur",
        "locality": "Peralam",
        "wikidata_qid": null,
        "coordinates": "10.95, 79.68"
      }
    },
    {
      "index": 124,
      "name": "Muktheeswarar Temple, Thilathaipathi",
      "displayName": "Muktheeswarar Temple, Thilathaipathi",
      "missingFields": [
        "perumal",
        "thaayaar",
        "wikidata_qid"
      ],
      "currentData": {
        "perumal": "Unknown",
        "thaayaar": null,
        "district": "Thiruvarur",
        "locality": "Sethalapathy",
        "wikidata_qid": null,
        "coordinates": "10.87, 79.73"
      }
    },
    {
      "index": 125,
      "name": "Mullai Vana Nathar Temple, Thirukarugavur",
      "displayName": "Mullai Vana Nathar Temple, Thirukarugavur",
      "missingFields": [
        "perumal",
        "thaayaar",
        "wikidata_qid"
      ],
      "currentData": {
        "perumal": "Unknown",
        "thaayaar": null,
        "district": "Thanjavur",
        "locality": "Thirukarukavur",
        "wikidata_qid": null,
        "coordinates": "10.86, 79.26"
      }
    },
    {
      "index": 126,
      "name": "Mundeeswarar Temple, Gramam",
      "displayName": "Mundeeswarar Temple, Gramam",
      "missingFields": [
        "perumal",
        "thaayaar",
        "wikidata_qid"
      ],
      "currentData": {
        "perumal": "Unknown",
        "thaayaar": null,
        "district": "Viluppuram",
        "locality": "Gramam",
        "wikidata_qid": null,
        "coordinates": "12.02, 79.5"
      }
    },
    {
      "index": 127,
      "name": "Murugan Temple, Thiruparankundram",
      "displayName": "Murugan Temple, Thiruparankundram",
      "missingFields": [
        "perumal",
        "thaayaar"
      ],
      "currentData": {
        "perumal": "Unknown",
        "thaayaar": null,
        "district": "Madurai",
        "locality": "Thiruparankundram",
        "wikidata_qid": "Q7785423",
        "coordinates": "9.8714, 78.0747"
      }
    },
    {
      "index": 128,
      "name": "Muruganathaswamy Temple, Thirumuruganpoondi",
      "displayName": "Muruganathaswamy Temple, Thirumuruganpoondi",
      "missingFields": [
        "perumal",
        "thaayaar",
        "wikidata_qid"
      ],
      "currentData": {
        "perumal": "Unknown",
        "thaayaar": null,
        "district": "Tiruppur",
        "locality": "Thirumuruganpoondi",
        "wikidata_qid": null,
        "coordinates": "11.2, 77.25"
      }
    },
    {
      "index": 129,
      "name": "Muruganatheswarar Temple, Thirumuruganpoondi",
      "displayName": "Muruganatheswarar Temple, Thirumuruganpoondi",
      "missingFields": [
        "perumal",
        "thaayaar",
        "wikidata_qid"
      ],
      "currentData": {
        "perumal": "Unknown",
        "thaayaar": null,
        "district": "Tiruppur",
        "locality": "Thirumuruganpoondi",
        "wikidata_qid": null,
        "coordinates": "11.201, 77.251"
      }
    },
    {
      "index": 130,
      "name": "Muthiyanchurappar Temple",
      "displayName": "Muthiyanchurappar Temple",
      "missingFields": [
        "perumal",
        "thaayaar",
        "wikidata_qid"
      ],
      "currentData": {
        "perumal": "Unknown",
        "thaayaar": null,
        "district": "Kallakurichi",
        "locality": "Muthiyanchur",
        "wikidata_qid": null,
        "coordinates": "11.6667, 79.25"
      }
    },
    {
      "index": 131,
      "name": "Nadanapureeswarar Temple, Thandanthottam",
      "displayName": "Nadanapureeswarar Temple, Thandanthottam",
      "missingFields": [
        "perumal",
        "thaayaar",
        "wikidata_qid"
      ],
      "currentData": {
        "perumal": "Unknown",
        "thaayaar": null,
        "district": "Thanjavur",
        "locality": "Thandanthottam",
        "wikidata_qid": null,
        "coordinates": "10.92, 79.38"
      }
    },
    {
      "index": 132,
      "name": "Nageswarar Temple, Kumbakonam",
      "displayName": "Nageswarar Temple, Kumbakonam",
      "missingFields": [
        "perumal",
        "thaayaar",
        "wikidata_qid"
      ],
      "currentData": {
        "perumal": "Unknown",
        "thaayaar": null,
        "district": "Thanjavur",
        "locality": "Kumbakonam",
        "wikidata_qid": null,
        "coordinates": "10.9585, 79.3752"
      }
    },
    {
      "index": 133,
      "name": "Nalladaiappar Temple, Thirunalladai",
      "displayName": "Nalladaiappar Temple, Thirunalladai",
      "missingFields": [
        "perumal",
        "thaayaar",
        "wikidata_qid"
      ],
      "currentData": {
        "perumal": "Unknown",
        "thaayaar": null,
        "district": "Mayiladuthurai",
        "locality": "Nalladai",
        "wikidata_qid": null,
        "coordinates": "11.1, 79.766"
      }
    },
    {
      "index": 134,
      "name": "Nallam Nathar Temple, Konerirajapuram",
      "displayName": "Nallam Nathar Temple, Konerirajapuram",
      "missingFields": [
        "thaayaar",
        "wikidata_qid"
      ],
      "currentData": {
        "perumal": "Nallam Nathar (Shiva)",
        "thaayaar": null,
        "district": "Mayiladuthurai",
        "locality": "Konerirajapuram",
        "wikidata_qid": null,
        "coordinates": "10.97, 79.53"
      }
    },
    {
      "index": 135,
      "name": "Nallavur Nathar Temple",
      "displayName": "Nallavur Nathar Temple",
      "missingFields": [
        "perumal",
        "thaayaar",
        "wikidata_qid"
      ],
      "currentData": {
        "perumal": "Unknown",
        "thaayaar": null,
        "district": "Viluppuram",
        "locality": "Nallavur",
        "wikidata_qid": null,
        "coordinates": "11.908, 79.303"
      }
    },
    {
      "index": 136,
      "name": "Nambi Narayana Temple",
      "displayName": "Nambi Narayana Temple",
      "missingFields": [
        "perumal",
        "thaayaar"
      ],
      "currentData": {
        "perumal": "Unknown",
        "thaayaar": null,
        "district": "Mandya",
        "locality": "Tondanur (near Melukote)",
        "wikidata_qid": "Q97440990",
        "coordinates": "12.5569423, 76.6418401"
      }
    },
    {
      "index": 137,
      "name": "Narasimhar",
      "displayName": "Narasimhar",
      "missingFields": [
        "perumal",
        "thaayaar"
      ],
      "currentData": {
        "perumal": "Unknown",
        "thaayaar": null,
        "district": "India",
        "locality": "Namakkal",
        "wikidata_qid": "Q12985081",
        "coordinates": "12.9839182, 80.2224743"
      }
    },
    {
      "index": 138,
      "name": "Narthana Vallabeswarar Temple, Koodalaiyarrur",
      "displayName": "Narthana Vallabeswarar Temple, Koodalaiyarrur",
      "missingFields": [
        "perumal",
        "thaayaar",
        "wikidata_qid"
      ],
      "currentData": {
        "perumal": "Unknown",
        "thaayaar": null,
        "district": "Cuddalore",
        "locality": "Koodalaiyathur",
        "wikidata_qid": null,
        "coordinates": "11.385, 79.405"
      }
    },
    {
      "index": 139,
      "name": "Narthana Vallabeswarar Temple, Thalaiyalangadu",
      "displayName": "Narthana Vallabeswarar Temple, Thalaiyalangadu",
      "missingFields": [
        "perumal",
        "thaayaar",
        "wikidata_qid"
      ],
      "currentData": {
        "perumal": "Unknown",
        "thaayaar": null,
        "district": "Thiruvarur",
        "locality": "Thalaiyalangadu",
        "wikidata_qid": null,
        "coordinates": "10.92, 79.63"
      }
    },
    {
      "index": 140,
      "name": "Nattatreeswarar Temple, Nanipalli",
      "displayName": "Nattatreeswarar Temple, Nanipalli",
      "missingFields": [
        "perumal",
        "thaayaar",
        "wikidata_qid"
      ],
      "currentData": {
        "perumal": "Unknown",
        "thaayaar": null,
        "district": "Erode",
        "locality": "Bhavani",
        "wikidata_qid": null,
        "coordinates": "11.45, 77.68"
      }
    },
    {
      "index": 141,
      "name": "Navaneetheswarar Temple, Sikkal",
      "displayName": "Navaneetheswarar Temple, Sikkal",
      "missingFields": [
        "perumal",
        "thaayaar",
        "wikidata_qid"
      ],
      "currentData": {
        "perumal": "Unknown",
        "thaayaar": null,
        "district": "Nagapattinam",
        "locality": "Sikkal",
        "wikidata_qid": null,
        "coordinates": "10.739, 79.789"
      }
    },
    {
      "index": 142,
      "name": "Navapashanam (Navabhasaanam)",
      "displayName": "Navapashanam (Navabhasaanam)",
      "missingFields": [
        "perumal",
        "thaayaar"
      ],
      "currentData": {
        "perumal": "Unknown",
        "thaayaar": null,
        "district": "Ramanathapuram",
        "locality": "Devipattinam",
        "wikidata_qid": "Q24937518",
        "coordinates": "9.4749165, 78.8967566"
      }
    },
    {
      "index": 143,
      "name": "Nedungalathar Temple, Thirunedungalam",
      "displayName": "Nedungalathar Temple, Thirunedungalam",
      "missingFields": [
        "perumal",
        "thaayaar",
        "wikidata_qid"
      ],
      "currentData": {
        "perumal": "Unknown",
        "thaayaar": null,
        "district": "Tiruchirappalli",
        "locality": "Thirunedungulam",
        "wikidata_qid": null,
        "coordinates": "10.833, 78.835"
      }
    },
    {
      "index": 144,
      "name": "Neelakandeswarar Temple, Erukkathampuliyur",
      "displayName": "Neelakandeswarar Temple, Erukkathampuliyur",
      "missingFields": [
        "perumal",
        "thaayaar",
        "wikidata_qid"
      ],
      "currentData": {
        "perumal": "Unknown",
        "thaayaar": null,
        "district": "Cuddalore",
        "locality": "Rajendrapattinam",
        "wikidata_qid": null,
        "coordinates": "11.4169, 79.3667"
      }
    },
    {
      "index": 145,
      "name": "Neelakandeswarar Temple, Iluppapattu",
      "displayName": "Neelakandeswarar Temple, Iluppapattu",
      "missingFields": [
        "perumal",
        "thaayaar",
        "wikidata_qid"
      ],
      "currentData": {
        "perumal": "Unknown",
        "thaayaar": null,
        "district": "Mayiladuthurai",
        "locality": "Iluppapattu",
        "wikidata_qid": null,
        "coordinates": "11.16, 79.6"
      }
    },
    {
      "index": 146,
      "name": "Neelakandeswarar Temple, Pazhamannippadikkarai",
      "displayName": "Neelakandeswarar Temple, Pazhamannippadikkarai",
      "missingFields": [
        "perumal",
        "thaayaar",
        "wikidata_qid"
      ],
      "currentData": {
        "perumal": "Unknown",
        "thaayaar": null,
        "district": "Mayiladuthurai",
        "locality": "Iluppapattu",
        "wikidata_qid": null,
        "coordinates": "11.1643, 79.6"
      }
    },
    {
      "index": 147,
      "name": "Neelakandeswarar Temple, Thandalaineelnari",
      "displayName": "Neelakandeswarar Temple, Thandalaineelnari",
      "missingFields": [
        "perumal",
        "thaayaar",
        "wikidata_qid"
      ],
      "currentData": {
        "perumal": "Unknown",
        "thaayaar": null,
        "district": "Thiruvarur",
        "locality": "Thandalacheri",
        "wikidata_qid": null,
        "coordinates": "10.85, 79.75"
      }
    },
    {
      "index": 148,
      "name": "Neelkanth Mahadev Temple, Rishikesh",
      "displayName": "Neelkanth Mahadev Temple, Rishikesh",
      "missingFields": [
        "perumal",
        "thaayaar",
        "wikidata_qid"
      ],
      "currentData": {
        "perumal": "Unknown",
        "thaayaar": null,
        "district": "Pauri Garhwal",
        "locality": "Rishikesh",
        "wikidata_qid": null,
        "coordinates": "30.08, 78.35"
      }
    },
    {
      "index": 149,
      "name": "Nellaiappar Temple, Tirunelveli",
      "displayName": "Nellaiappar Temple, Tirunelveli",
      "missingFields": [
        "perumal",
        "thaayaar",
        "wikidata_qid"
      ],
      "currentData": {
        "perumal": "Unknown",
        "thaayaar": null,
        "district": "Tirunelveli",
        "locality": "Tirunelveli",
        "wikidata_qid": null,
        "coordinates": "8.7296, 77.6865"
      }
    },
    {
      "index": 150,
      "name": "Nethrapureeswarar Temple, Irumpoolai",
      "displayName": "Nethrapureeswarar Temple, Irumpoolai",
      "missingFields": [
        "perumal",
        "thaayaar",
        "wikidata_qid"
      ],
      "currentData": {
        "perumal": "Unknown",
        "thaayaar": null,
        "district": "Mayiladuthurai",
        "locality": "Keelaperumpallam",
        "wikidata_qid": null,
        "coordinates": "11.17, 79.84"
      }
    },
    {
      "index": 151,
      "name": "Nintriyur Nathar Temple, Thirunintravur",
      "displayName": "Nintriyur Nathar Temple, Thirunintravur",
      "missingFields": [
        "perumal",
        "thaayaar",
        "wikidata_qid"
      ],
      "currentData": {
        "perumal": "Unknown",
        "thaayaar": null,
        "district": "Mayiladuthurai",
        "locality": "Thirunindriyur",
        "wikidata_qid": null,
        "coordinates": "11.15, 79.725"
      }
    },
    {
      "index": 152,
      "name": "Niyamamudaiyar Temple, Niyamam",
      "displayName": "Niyamamudaiyar Temple, Niyamam",
      "missingFields": [
        "perumal",
        "thaayaar",
        "wikidata_qid"
      ],
      "currentData": {
        "perumal": "Unknown",
        "thaayaar": null,
        "district": "Thanjavur",
        "locality": "Thiruniyamam",
        "wikidata_qid": null,
        "coordinates": "10.73, 79.03"
      }
    },
    {
      "index": 153,
      "name": "Onakantheswarar Temple, Kanchipuram",
      "displayName": "Onakantheswarar Temple, Kanchipuram",
      "missingFields": [
        "perumal",
        "thaayaar",
        "wikidata_qid"
      ],
      "currentData": {
        "perumal": "Unknown",
        "thaayaar": null,
        "district": "Kanchipuram",
        "locality": "Kanchipuram",
        "wikidata_qid": null,
        "coordinates": "12.83, 79.69"
      }
    },
    {
      "index": 154,
      "name": "Ooraleeswarar Temple, Thakkolam",
      "displayName": "Ooraleeswarar Temple, Thakkolam",
      "missingFields": [
        "perumal",
        "thaayaar",
        "wikidata_qid"
      ],
      "currentData": {
        "perumal": "Unknown",
        "thaayaar": null,
        "district": "Kanchipuram",
        "locality": "Thakkolam",
        "wikidata_qid": null,
        "coordinates": "13.12, 79.62"
      }
    },
    {
      "index": 155,
      "name": "Opporuvarumilladha Nayagar Temple, Arakandanallur",
      "displayName": "Opporuvarumilladha Nayagar Temple, Arakandanallur",
      "missingFields": [
        "perumal",
        "thaayaar",
        "wikidata_qid"
      ],
      "currentData": {
        "perumal": "Unknown",
        "thaayaar": null,
        "district": "Viluppuram",
        "locality": "Arakandanallur",
        "wikidata_qid": null,
        "coordinates": "11.97, 79.18"
      }
    },
    {
      "index": 156,
      "name": "Othavaneswarar Temple, Thiruchotruthurai",
      "displayName": "Othavaneswarar Temple, Thiruchotruthurai",
      "missingFields": [
        "perumal",
        "thaayaar",
        "wikidata_qid"
      ],
      "currentData": {
        "perumal": "Unknown",
        "thaayaar": null,
        "district": "Thanjavur",
        "locality": "Thiruchottruthurai",
        "wikidata_qid": null,
        "coordinates": "10.852, 79.049"
      }
    },
    {
      "index": 157,
      "name": "Paadaaleeswarar Temple",
      "displayName": "Paadaaleeswarar Temple",
      "missingFields": [
        "perumal",
        "thaayaar",
        "wikidata_qid"
      ],
      "currentData": {
        "perumal": "Unknown",
        "thaayaar": null,
        "district": "Cuddalore",
        "locality": "Cuddalore",
        "wikidata_qid": null,
        "coordinates": "11.7451, 79.7663"
      }
    },
    {
      "index": 158,
      "name": "Paampuranathar Temple, Thirupampuram",
      "displayName": "Paampuranathar Temple, Thirupampuram",
      "missingFields": [
        "perumal",
        "thaayaar"
      ],
      "currentData": {
        "perumal": "Unknown",
        "thaayaar": null,
        "district": "Thiruvarur",
        "locality": "Thirupampuram",
        "wikidata_qid": "Q7121432",
        "coordinates": "10.93, 79.65"
      }
    },
    {
      "index": 159,
      "name": "Pacchai Vanna Perumal",
      "displayName": "Pacchai Vanna Perumal",
      "missingFields": [
        "perumal",
        "thaayaar",
        "district",
        "wikidata_qid"
      ],
      "currentData": {
        "perumal": "Unknown",
        "thaayaar": null,
        "district": null,
        "locality": "Kanchipuram",
        "wikidata_qid": null,
        "coordinates": "12.9647163, 79.9839686"
      }
    },
    {
      "index": 160,
      "name": "Padaleeswarar Temple, Thiruppathiripuliyur",
      "displayName": "Padaleeswarar Temple, Thiruppathiripuliyur",
      "missingFields": [
        "perumal",
        "thaayaar",
        "wikidata_qid"
      ],
      "currentData": {
        "perumal": "Unknown",
        "thaayaar": null,
        "district": "Cuddalore",
        "locality": "Cuddalore",
        "wikidata_qid": null,
        "coordinates": "11.7451, 79.7663"
      }
    },
    {
      "index": 161,
      "name": "Padikkasunathar Temple, Azhagaputhur",
      "displayName": "Padikkasunathar Temple, Azhagaputhur",
      "missingFields": [
        "perumal",
        "thaayaar",
        "wikidata_qid"
      ],
      "currentData": {
        "perumal": "Unknown",
        "thaayaar": null,
        "district": "Thanjavur",
        "locality": "Azhagaputhur",
        "wikidata_qid": null,
        "coordinates": "10.98, 79.43"
      }
    },
    {
      "index": 162,
      "name": "Paimpozhil Nathar Temple, Thiruppaimpozhil",
      "displayName": "Paimpozhil Nathar Temple, Thiruppaimpozhil",
      "missingFields": [
        "perumal",
        "thaayaar",
        "wikidata_qid"
      ],
      "currentData": {
        "perumal": "Unknown",
        "thaayaar": null,
        "district": "Nagapattinam",
        "locality": "Thirupugalur",
        "wikidata_qid": null,
        "coordinates": "10.865, 79.684"
      }
    },
    {
      "index": 163,
      "name": "Palaivananathar Temple, Thiruppalaivanam",
      "displayName": "Palaivananathar Temple, Thiruppalaivanam",
      "missingFields": [
        "perumal",
        "thaayaar",
        "wikidata_qid"
      ],
      "currentData": {
        "perumal": "Unknown",
        "thaayaar": null,
        "district": "Tiruvallur",
        "locality": "Thiruppalaivanam",
        "wikidata_qid": null,
        "coordinates": "13.35, 80.17"
      }
    },
    {
      "index": 164,
      "name": "Pallavaneswarar Temple, Poompuhar",
      "displayName": "Pallavaneswarar Temple, Poompuhar",
      "missingFields": [
        "perumal",
        "thaayaar",
        "wikidata_qid"
      ],
      "currentData": {
        "perumal": "Unknown",
        "thaayaar": null,
        "district": "Mayiladuthurai",
        "locality": "Poompuhar",
        "wikidata_qid": null,
        "coordinates": "11.15, 79.85"
      }
    },
    {
      "index": 165,
      "name": "Palvannanathar Temple, Thirukazhippalai",
      "displayName": "Palvannanathar Temple, Thirukazhippalai",
      "missingFields": [
        "perumal",
        "thaayaar",
        "wikidata_qid"
      ],
      "currentData": {
        "perumal": "Unknown",
        "thaayaar": null,
        "district": "Cuddalore",
        "locality": "Sivapuri",
        "wikidata_qid": null,
        "coordinates": "11.3934, 79.7225"
      }
    },
    {
      "index": 166,
      "name": "Panaka Narasimha",
      "displayName": "Panaka Narasimha",
      "missingFields": [
        "perumal",
        "thaayaar",
        "district",
        "wikidata_qid"
      ],
      "currentData": {
        "perumal": "Unknown",
        "thaayaar": null,
        "district": null,
        "locality": "Mangalagiri (Vijayawada region)",
        "wikidata_qid": null,
        "coordinates": "15.9129, 79.74"
      }
    },
    {
      "index": 167,
      "name": "Panangattur Nathar Temple, Puravaar",
      "displayName": "Panangattur Nathar Temple, Puravaar",
      "missingFields": [
        "perumal",
        "thaayaar",
        "wikidata_qid"
      ],
      "currentData": {
        "perumal": "Unknown",
        "thaayaar": null,
        "district": "Thiruvarur",
        "locality": "Thirupanangattur",
        "wikidata_qid": null,
        "coordinates": "10.7, 79.52"
      }
    },
    {
      "index": 168,
      "name": "Panangattur Nathar Temple, Thiruppanangattur",
      "displayName": "Panangattur Nathar Temple, Thiruppanangattur",
      "missingFields": [
        "perumal",
        "thaayaar",
        "wikidata_qid"
      ],
      "currentData": {
        "perumal": "Unknown",
        "thaayaar": null,
        "district": "Thiruvarur",
        "locality": "Thirupanangattur",
        "wikidata_qid": null,
        "coordinates": "10.7, 79.52"
      }
    },
    {
      "index": 169,
      "name": "Pandukeshwar",
      "displayName": "Pandukeshwar",
      "missingFields": [
        "perumal",
        "thaayaar"
      ],
      "currentData": {
        "perumal": "Unknown",
        "thaayaar": null,
        "district": "Chamoli district",
        "locality": "Pandukeshwar (Badrinath region)",
        "wikidata_qid": "Q799695",
        "coordinates": "30.6344074, 79.5470819"
      }
    },
    {
      "index": 170,
      "name": "Pandurangan",
      "displayName": "Pandurangan",
      "missingFields": [
        "perumal",
        "thaayaar"
      ],
      "currentData": {
        "perumal": "Unknown",
        "thaayaar": null,
        "district": "Tamil Nadu",
        "locality": "Thennangur",
        "wikidata_qid": "Q7781401",
        "coordinates": "13.121935, 80.1444195"
      }
    },
    {
      "index": 171,
      "name": "Paravai Unmandali Thali Temple, Thirupparavayunmandali",
      "displayName": "Paravai Unmandali Thali Temple, Thirupparavayunmandali",
      "missingFields": [
        "perumal",
        "thaayaar",
        "wikidata_qid"
      ],
      "currentData": {
        "perumal": "Unknown",
        "thaayaar": null,
        "district": "Nagapattinam",
        "locality": "Paravai",
        "wikidata_qid": null,
        "coordinates": "10.7066708, 79.834901"
      }
    },
    {
      "index": 172,
      "name": "Parvatheeswarar Temple, Koilpathu",
      "displayName": "Parvatheeswarar Temple, Koilpathu",
      "missingFields": [
        "perumal",
        "thaayaar",
        "wikidata_qid"
      ],
      "currentData": {
        "perumal": "Unknown",
        "thaayaar": null,
        "district": "Karaikal",
        "locality": "Thiruthalaichangadu",
        "wikidata_qid": null,
        "coordinates": "11.12, 79.8"
      }
    },
    {
      "index": 173,
      "name": "Pashupatinath Temple",
      "displayName": "Pashupatinath Temple",
      "missingFields": [
        "perumal",
        "thaayaar"
      ],
      "currentData": {
        "perumal": "Unknown",
        "thaayaar": null,
        "district": "Kathmandu",
        "locality": "Kathmandu",
        "wikidata_qid": "Q380384",
        "coordinates": "27.7103, 85.3222"
      }
    },
    {
      "index": 174,
      "name": "Pasupatheeswarar Temple, Aavur",
      "displayName": "Pasupatheeswarar Temple, Aavur",
      "missingFields": [
        "perumal",
        "thaayaar",
        "wikidata_qid"
      ],
      "currentData": {
        "perumal": "Unknown",
        "thaayaar": null,
        "district": "Thiruvarur",
        "locality": "Aavur",
        "wikidata_qid": null,
        "coordinates": "10.8, 79.3"
      }
    },
    {
      "index": 175,
      "name": "Pasupatheeswarar Temple, Govindagudi",
      "displayName": "Pasupatheeswarar Temple, Govindagudi",
      "missingFields": [
        "perumal",
        "thaayaar",
        "wikidata_qid"
      ],
      "currentData": {
        "perumal": "Unknown",
        "thaayaar": null,
        "district": "Thanjavur",
        "locality": "Avoor",
        "wikidata_qid": null,
        "coordinates": "10.8, 79.3"
      }
    },
    {
      "index": 176,
      "name": "Pasupatheeswarar Temple, Karur",
      "displayName": "Pasupatheeswarar Temple, Karur",
      "missingFields": [
        "perumal",
        "thaayaar",
        "wikidata_qid"
      ],
      "currentData": {
        "perumal": "Unknown",
        "thaayaar": null,
        "district": "Karur",
        "locality": "Karur",
        "wikidata_qid": null,
        "coordinates": "10.95, 78.08"
      }
    },
    {
      "index": 177,
      "name": "Pasupatheeswarar Temple, Pandanallur",
      "displayName": "Pasupatheeswarar Temple, Pandanallur",
      "missingFields": [
        "perumal",
        "thaayaar",
        "wikidata_qid"
      ],
      "currentData": {
        "perumal": "Unknown",
        "thaayaar": null,
        "district": "Thanjavur",
        "locality": "Pandanallur",
        "wikidata_qid": null,
        "coordinates": "11.08, 79.5"
      }
    },
    {
      "index": 178,
      "name": "Pasupatheeswarar Temple, Thelur",
      "displayName": "Pasupatheeswarar Temple, Thelur",
      "missingFields": [
        "perumal",
        "thaayaar",
        "wikidata_qid"
      ],
      "currentData": {
        "perumal": "Unknown",
        "thaayaar": null,
        "district": "Thanjavur",
        "locality": "Thelur",
        "wikidata_qid": null,
        "coordinates": "10.999, 79.256"
      }
    },
    {
      "index": 179,
      "name": "Pasupatheeswarar Temple, Thiru Aappadi",
      "displayName": "Pasupatheeswarar Temple, Thiru Aappadi",
      "missingFields": [
        "perumal",
        "thaayaar",
        "wikidata_qid"
      ],
      "currentData": {
        "perumal": "Unknown",
        "thaayaar": null,
        "district": "Thanjavur",
        "locality": "Aappadi",
        "wikidata_qid": null,
        "coordinates": "11.124, 79.471"
      }
    },
    {
      "index": 180,
      "name": "Pasupatheeswarar Temple, Thiruppalathurai",
      "displayName": "Pasupatheeswarar Temple, Thiruppalathurai",
      "missingFields": [
        "perumal",
        "thaayaar",
        "wikidata_qid"
      ],
      "currentData": {
        "perumal": "Unknown",
        "thaayaar": null,
        "district": "Thanjavur",
        "locality": "Papanasam",
        "wikidata_qid": null,
        "coordinates": "10.93, 79.27"
      }
    },
    {
      "index": 181,
      "name": "Pasupatheeswarar Temple, Thiruppasur",
      "displayName": "Pasupatheeswarar Temple, Thiruppasur",
      "missingFields": [
        "perumal",
        "thaayaar",
        "wikidata_qid"
      ],
      "currentData": {
        "perumal": "Unknown",
        "thaayaar": null,
        "district": "Tiruvallur",
        "locality": "Thiruppasur",
        "wikidata_qid": null,
        "coordinates": "13.15, 79.9"
      }
    },
    {
      "index": 182,
      "name": "Pasupatheeswarar Temple, Thiruthuraiyur",
      "displayName": "Pasupatheeswarar Temple, Thiruthuraiyur",
      "missingFields": [
        "perumal",
        "thaayaar",
        "wikidata_qid"
      ],
      "currentData": {
        "perumal": "Unknown",
        "thaayaar": null,
        "district": "Cuddalore",
        "locality": "Thiruthuraiyur",
        "wikidata_qid": null,
        "coordinates": "11.78, 79.52"
      }
    },
    {
      "index": 183,
      "name": "Pasupatheeswarar Temple, Thiruvetkalam",
      "displayName": "Pasupatheeswarar Temple, Thiruvetkalam",
      "missingFields": [
        "perumal",
        "thaayaar",
        "wikidata_qid"
      ],
      "currentData": {
        "perumal": "Unknown",
        "thaayaar": null,
        "district": "Cuddalore",
        "locality": "Annamalai Nagar",
        "wikidata_qid": null,
        "coordinates": "11.4081, 79.7183"
      }
    },
    {
      "index": 184,
      "name": "Pathanchali Nathar Temple, Thirukanattumullur",
      "displayName": "Pathanchali Nathar Temple, Thirukanattumullur",
      "missingFields": [
        "perumal",
        "thaayaar",
        "wikidata_qid"
      ],
      "currentData": {
        "perumal": "Unknown",
        "thaayaar": null,
        "district": "Cuddalore",
        "locality": "Kanattumullur",
        "wikidata_qid": null,
        "coordinates": "11.3653, 79.6136"
      }
    },
    {
      "index": 185,
      "name": "Payatrunathar Temple, Thirupayathur",
      "displayName": "Payatrunathar Temple, Thirupayathur",
      "missingFields": [
        "perumal",
        "thaayaar",
        "wikidata_qid"
      ],
      "currentData": {
        "perumal": "Unknown",
        "thaayaar": null,
        "district": "Thiruvarur",
        "locality": "Thirupayathangudi",
        "wikidata_qid": null,
        "coordinates": "10.84, 79.6"
      }
    },
    {
      "index": 186,
      "name": "Pongu Saneswarar Temple",
      "displayName": "Pongu Saneswarar Temple",
      "missingFields": [
        "perumal",
        "thaayaar",
        "wikidata_qid"
      ],
      "currentData": {
        "perumal": "Unknown",
        "thaayaar": null,
        "district": "Thiruvarur",
        "locality": "Thirukollikadu",
        "wikidata_qid": null,
        "coordinates": "10.6315, 79.5847"
      }
    },
    {
      "index": 187,
      "name": "Prananadeswarar Temple, Thirumangalakudi",
      "displayName": "Prananadeswarar Temple, Thirumangalakudi",
      "missingFields": [
        "perumal",
        "thaayaar",
        "wikidata_qid"
      ],
      "currentData": {
        "perumal": "Unknown",
        "thaayaar": null,
        "district": "Thanjavur",
        "locality": "Thirumangalakudi",
        "wikidata_qid": null,
        "coordinates": "11.08, 79.42"
      }
    },
    {
      "index": 188,
      "name": "Pranava Vyakrapureeswarar Temple, Omampuliyur",
      "displayName": "Pranava Vyakrapureeswarar Temple, Omampuliyur",
      "missingFields": [
        "perumal",
        "thaayaar",
        "wikidata_qid"
      ],
      "currentData": {
        "perumal": "Unknown",
        "thaayaar": null,
        "district": "Cuddalore",
        "locality": "Omampuliyur",
        "wikidata_qid": null,
        "coordinates": "11.3323, 79.4442"
      }
    },
    {
      "index": 189,
      "name": "Prasanna Venkatachalapathy Perumal",
      "displayName": "Prasanna Venkatachalapathy Perumal",
      "missingFields": [
        "perumal",
        "thaayaar",
        "district"
      ],
      "currentData": {
        "perumal": "Unknown",
        "thaayaar": null,
        "district": null,
        "locality": "Gunaseelam",
        "wikidata_qid": "Q16056680",
        "coordinates": "10.9017071, 78.5694362"
      }
    },
    {
      "index": 190,
      "name": "Prasanna Venkatesar",
      "displayName": "Prasanna Venkatesar",
      "missingFields": [
        "perumal",
        "thaayaar",
        "district",
        "wikidata_qid"
      ],
      "currentData": {
        "perumal": "Unknown",
        "thaayaar": null,
        "district": null,
        "locality": "Thanthondri Malai",
        "wikidata_qid": null,
        "coordinates": "11.1271, 78.6569"
      }
    },
    {
      "index": 191,
      "name": "Punavayil Nathar Temple, Sethubavachatram",
      "displayName": "Punavayil Nathar Temple, Sethubavachatram",
      "missingFields": [
        "perumal",
        "thaayaar",
        "wikidata_qid"
      ],
      "currentData": {
        "perumal": "Unknown",
        "thaayaar": null,
        "district": "Thiruvarur",
        "locality": "Sethubavachatram",
        "wikidata_qid": null,
        "coordinates": "10.77, 79.63"
      }
    },
    {
      "index": 192,
      "name": "Punyakoteeswarar Temple, Thirukaraikadu",
      "displayName": "Punyakoteeswarar Temple, Thirukaraikadu",
      "missingFields": [
        "perumal",
        "thaayaar",
        "wikidata_qid"
      ],
      "currentData": {
        "perumal": "Unknown",
        "thaayaar": null,
        "district": "Kanchipuram",
        "locality": "Thirukalimedu",
        "wikidata_qid": null,
        "coordinates": "12.85, 79.72"
      }
    },
    {
      "index": 193,
      "name": "Puranthakeswarar Temple",
      "displayName": "Puranthakeswarar Temple",
      "missingFields": [
        "perumal",
        "thaayaar",
        "wikidata_qid"
      ],
      "currentData": {
        "perumal": "Unknown",
        "thaayaar": null,
        "district": "Cuddalore",
        "locality": "Puranthakam",
        "wikidata_qid": null,
        "coordinates": "11.459, 79.625"
      }
    },
    {
      "index": 194,
      "name": "Pushpavananathar Temple, Thiruppanthuruthi",
      "displayName": "Pushpavananathar Temple, Thiruppanthuruthi",
      "missingFields": [
        "perumal",
        "thaayaar",
        "wikidata_qid"
      ],
      "currentData": {
        "perumal": "Unknown",
        "thaayaar": null,
        "district": "Thanjavur",
        "locality": "Thirupoonthuruthi",
        "wikidata_qid": null,
        "coordinates": "10.835, 79.079"
      }
    },
    {
      "index": 195,
      "name": "Pushpavananathar Temple, Thirupuvanam",
      "displayName": "Pushpavananathar Temple, Thirupuvanam",
      "missingFields": [
        "perumal",
        "thaayaar",
        "wikidata_qid"
      ],
      "currentData": {
        "perumal": "Unknown",
        "thaayaar": null,
        "district": "Sivaganga",
        "locality": "Thirubuvanam",
        "wikidata_qid": null,
        "coordinates": "9.85, 78.27"
      }
    },
    {
      "index": 196,
      "name": "Raghavendra Brindavana (Mantralayam)",
      "displayName": "Raghavendra Brindavana (Mantralayam)",
      "missingFields": [
        "perumal",
        "thaayaar",
        "district"
      ],
      "currentData": {
        "perumal": "Unknown",
        "thaayaar": null,
        "district": null,
        "locality": "Mantralayam",
        "wikidata_qid": "Q7586338",
        "coordinates": "15.9413643, 77.4236981"
      }
    },
    {
      "index": 197,
      "name": "Ramanathaswamy Temple, Rameswaram",
      "displayName": "Ramanathaswamy Temple, Rameswaram",
      "missingFields": [
        "perumal",
        "thaayaar",
        "wikidata_qid"
      ],
      "currentData": {
        "perumal": "Unknown",
        "thaayaar": null,
        "district": "Ramanathapuram",
        "locality": "Rameswaram",
        "wikidata_qid": null,
        "coordinates": "9.2881, 79.3174"
      }
    },
    {
      "index": 198,
      "name": "Ramanathaswamy Temple, Thirukannapuram",
      "displayName": "Ramanathaswamy Temple, Thirukannapuram",
      "missingFields": [
        "thaayaar",
        "wikidata_qid"
      ],
      "currentData": {
        "perumal": "Ramanathaswamy",
        "thaayaar": null,
        "district": "Thiruvarur",
        "locality": "Thirukannapuram",
        "wikidata_qid": null,
        "coordinates": "10.8016, 79.7044"
      }
    },
    {
      "index": 199,
      "name": "Ramanathaswamy Temple, Thiruramanathapuram",
      "displayName": "Ramanathaswamy Temple, Thiruramanathapuram",
      "missingFields": [
        "perumal",
        "thaayaar",
        "wikidata_qid"
      ],
      "currentData": {
        "perumal": "Unknown",
        "thaayaar": null,
        "district": "Thiruvarur",
        "locality": "Thirurameswaram",
        "wikidata_qid": null,
        "coordinates": "10.88, 79.61"
      }
    },
    {
      "index": 200,
      "name": "Rathnapureeswarar Temple, Naattiyathankudi",
      "displayName": "Rathnapureeswarar Temple, Naattiyathankudi",
      "missingFields": [
        "perumal",
        "thaayaar",
        "wikidata_qid"
      ],
      "currentData": {
        "perumal": "Unknown",
        "thaayaar": null,
        "district": "Thiruvarur",
        "locality": "Nattiyathankudi",
        "wikidata_qid": null,
        "coordinates": "10.7, 79.5"
      }
    },
    {
      "index": 201,
      "name": "Renganathar",
      "displayName": "Renganathar",
      "missingFields": [
        "perumal",
        "thaayaar",
        "district",
        "wikidata_qid"
      ],
      "currentData": {
        "perumal": "Unknown",
        "thaayaar": null,
        "district": null,
        "locality": "Adhirangam (near Vedaranyam)",
        "wikidata_qid": null,
        "coordinates": "9.5915026, 77.9572805"
      }
    },
    {
      "index": 202,
      "name": "Sakalabhuvaneswarar Temple, Meeyachur",
      "displayName": "Sakalabhuvaneswarar Temple, Meeyachur",
      "missingFields": [
        "perumal",
        "thaayaar",
        "wikidata_qid"
      ],
      "currentData": {
        "perumal": "Unknown",
        "thaayaar": null,
        "district": "Thiruvarur",
        "locality": "Peralam",
        "wikidata_qid": null,
        "coordinates": "10.95, 79.68"
      }
    },
    {
      "index": 203,
      "name": "Sankaranyeswarar Temple, Thalaichangadu",
      "displayName": "Sankaranyeswarar Temple, Thalaichangadu",
      "missingFields": [
        "perumal",
        "thaayaar",
        "wikidata_qid"
      ],
      "currentData": {
        "perumal": "Unknown",
        "thaayaar": null,
        "district": "Mayiladuthurai",
        "locality": "Thalaichangadu",
        "wikidata_qid": null,
        "coordinates": "11.12, 79.8"
      }
    },
    {
      "index": 204,
      "name": "Sarguneswarar Temple, Karukkudi",
      "displayName": "Sarguneswarar Temple, Karukkudi",
      "missingFields": [
        "thaayaar",
        "wikidata_qid"
      ],
      "currentData": {
        "perumal": "Sarguneswarar",
        "thaayaar": null,
        "district": "Thanjavur",
        "locality": "Thirukarukudi",
        "wikidata_qid": null,
        "coordinates": "10.796667, 79.3"
      }
    },
    {
      "index": 205,
      "name": "Sarguneswarar Temple, Karuveli",
      "displayName": "Sarguneswarar Temple, Karuveli",
      "missingFields": [
        "perumal",
        "thaayaar",
        "wikidata_qid"
      ],
      "currentData": {
        "perumal": "Unknown",
        "thaayaar": null,
        "district": "Thiruvarur",
        "locality": "Karuveli",
        "wikidata_qid": null,
        "coordinates": "10.871, 79.519"
      }
    },
    {
      "index": 206,
      "name": "Sarguneswarar Temple, Seruvili",
      "displayName": "Sarguneswarar Temple, Seruvili",
      "missingFields": [
        "perumal",
        "thaayaar",
        "wikidata_qid"
      ],
      "currentData": {
        "perumal": "Unknown",
        "thaayaar": null,
        "district": "Thiruvarur",
        "locality": "Cheruvili",
        "wikidata_qid": null,
        "coordinates": "11.1271, 78.6569"
      }
    },
    {
      "index": 207,
      "name": "Sathgurunathar Temple",
      "displayName": "Sathgurunathar Temple",
      "missingFields": [
        "perumal",
        "thaayaar",
        "wikidata_qid"
      ],
      "currentData": {
        "perumal": "Unknown",
        "thaayaar": null,
        "district": "Thanjavur",
        "locality": "Thittai",
        "wikidata_qid": null,
        "coordinates": "10.852, 79.083"
      }
    },
    {
      "index": 208,
      "name": "Siddhanatheswarar Temple, Naraiyur",
      "displayName": "Siddhanatheswarar Temple, Naraiyur",
      "missingFields": [
        "thaayaar",
        "wikidata_qid"
      ],
      "currentData": {
        "perumal": "Siddhanatheeswarar",
        "thaayaar": null,
        "district": "Thiruvarur",
        "locality": "Thirunaraiyur",
        "wikidata_qid": null,
        "coordinates": "10.7986, 79.6356"
      }
    },
    {
      "index": 209,
      "name": "Sivagurunathaswamy Temple, Sivapuram",
      "displayName": "Sivagurunathaswamy Temple, Sivapuram",
      "missingFields": [
        "perumal",
        "thaayaar",
        "wikidata_qid"
      ],
      "currentData": {
        "perumal": "Unknown",
        "thaayaar": null,
        "district": "Thanjavur",
        "locality": "Sivapuram",
        "wikidata_qid": null,
        "coordinates": "10.93, 79.35"
      }
    },
    {
      "index": 210,
      "name": "Sivakozhundeeswarar Temple, Sathimutham",
      "displayName": "Sivakozhundeeswarar Temple, Sathimutham",
      "missingFields": [
        "thaayaar",
        "wikidata_qid"
      ],
      "currentData": {
        "perumal": "Sivakozhundeeswarar",
        "thaayaar": null,
        "district": "Thanjavur",
        "locality": "Thiru Sakthi Mutram",
        "wikidata_qid": null,
        "coordinates": "10.7965, 79.1776"
      }
    },
    {
      "index": 211,
      "name": "Sivalokanathar Temple, Achalpuram",
      "displayName": "Sivalokanathar Temple, Achalpuram",
      "missingFields": [
        "thaayaar",
        "wikidata_qid"
      ],
      "currentData": {
        "perumal": "Sivalokanathar",
        "thaayaar": null,
        "district": "Mayiladuthurai",
        "locality": "Achalpuram",
        "wikidata_qid": null,
        "coordinates": "11.33, 79.73"
      }
    },
    {
      "index": 212,
      "name": "Somanathar Temple, Karaikkal",
      "displayName": "Somanathar Temple, Karaikkal",
      "missingFields": [
        "perumal",
        "thaayaar",
        "wikidata_qid"
      ],
      "currentData": {
        "perumal": "Unknown",
        "thaayaar": null,
        "district": "Karaikal",
        "locality": "Thiruvettakudy",
        "wikidata_qid": null,
        "coordinates": "10.9793, 79.8242"
      }
    },
    {
      "index": 213,
      "name": "Somanathar Temple, Palaiyarai Vadathali",
      "displayName": "Somanathar Temple, Palaiyarai Vadathali",
      "missingFields": [
        "perumal",
        "thaayaar",
        "wikidata_qid"
      ],
      "currentData": {
        "perumal": "Unknown",
        "thaayaar": null,
        "district": "Thanjavur",
        "locality": "Pazhayarai",
        "wikidata_qid": null,
        "coordinates": "10.93, 79.33"
      }
    },
    {
      "index": 214,
      "name": "Somanathaswamy Temple, Needur",
      "displayName": "Somanathaswamy Temple, Needur",
      "missingFields": [
        "perumal",
        "thaayaar",
        "wikidata_qid"
      ],
      "currentData": {
        "perumal": "Unknown",
        "thaayaar": null,
        "district": "Mayiladuthurai",
        "locality": "Needur",
        "wikidata_qid": null,
        "coordinates": "11.127, 79.691"
      }
    },
    {
      "index": 215,
      "name": "Someswarar Temple, Kumbakonam",
      "displayName": "Someswarar Temple, Kumbakonam",
      "missingFields": [
        "perumal",
        "thaayaar",
        "wikidata_qid"
      ],
      "currentData": {
        "perumal": "Unknown",
        "thaayaar": null,
        "district": "Thanjavur",
        "locality": "Kumbakonam",
        "wikidata_qid": null,
        "coordinates": "10.961, 79.3802"
      }
    },
    {
      "index": 216,
      "name": "Soundareswarar Temple, Panaiyur",
      "displayName": "Soundareswarar Temple, Panaiyur",
      "missingFields": [
        "perumal",
        "thaayaar",
        "wikidata_qid"
      ],
      "currentData": {
        "perumal": "Unknown",
        "thaayaar": null,
        "district": "Thiruvarur",
        "locality": "Thiruppanaiyur",
        "wikidata_qid": null,
        "coordinates": "10.839, 79.626"
      }
    },
    {
      "index": 217,
      "name": "Soundareswarar Temple, Thiru Naraiyur",
      "displayName": "Soundareswarar Temple, Thiru Naraiyur",
      "missingFields": [
        "perumal",
        "thaayaar",
        "wikidata_qid"
      ],
      "currentData": {
        "perumal": "Unknown",
        "thaayaar": null,
        "district": "Cuddalore",
        "locality": "Naraiyur",
        "wikidata_qid": null,
        "coordinates": "11.3108, 79.5275"
      }
    },
    {
      "index": 218,
      "name": "Sree Vanchinadha Swamy Temple, Srivanchiyam",
      "displayName": "Sree Vanchinadha Swamy Temple, Srivanchiyam",
      "missingFields": [
        "perumal",
        "thaayaar",
        "wikidata_qid"
      ],
      "currentData": {
        "perumal": "Unknown",
        "thaayaar": null,
        "district": "Thiruvarur",
        "locality": "Srivanchiyam",
        "wikidata_qid": null,
        "coordinates": "10.9023, 79.5369"
      }
    },
    {
      "index": 219,
      "name": "Sri Ranganathaswamy Temple",
      "displayName": "Sri Ranganathaswamy Temple",
      "missingFields": [
        "perumal",
        "thaayaar"
      ],
      "currentData": {
        "perumal": "Unknown",
        "thaayaar": null,
        "district": "Mandya",
        "locality": "Srirangapatna",
        "wikidata_qid": "Q3595527",
        "coordinates": "12.424167, 76.683056"
      }
    },
    {
      "index": 220,
      "name": "Sri Renganathar",
      "displayName": "Sri Renganathar",
      "missingFields": [
        "perumal",
        "thaayaar",
        "district",
        "wikidata_qid"
      ],
      "currentData": {
        "perumal": "Unknown",
        "thaayaar": null,
        "district": null,
        "locality": "Thirumandangudi (Kumbakonam region)",
        "wikidata_qid": null,
        "coordinates": "9.5915026, 77.9572805"
      }
    },
    {
      "index": 221,
      "name": "Srikalahasteeswara Temple, Srikalahasti",
      "displayName": "Srikalahasteeswara Temple, Srikalahasti",
      "missingFields": [
        "perumal",
        "thaayaar",
        "wikidata_qid"
      ],
      "currentData": {
        "perumal": "Unknown",
        "thaayaar": null,
        "district": "Tirupati",
        "locality": "Srikalahasti",
        "wikidata_qid": null,
        "coordinates": "13.7497, 79.6985"
      }
    },
    {
      "index": 222,
      "name": "Srinivasan",
      "displayName": "Srinivasan",
      "missingFields": [
        "perumal",
        "thaayaar",
        "district"
      ],
      "currentData": {
        "perumal": "Unknown",
        "thaayaar": null,
        "district": null,
        "locality": "Kodikkarai (Point Calimere)",
        "wikidata_qid": "Q123152605",
        "coordinates": "13.0394875, 80.2225152"
      }
    },
    {
      "index": 223,
      "name": "Subramanya Swamy Temple, Thiruparankundram",
      "displayName": "Subramanya Swamy Temple, Thiruparankundram",
      "missingFields": [
        "perumal",
        "thaayaar",
        "wikidata_qid"
      ],
      "currentData": {
        "perumal": "Unknown",
        "thaayaar": null,
        "district": "Madurai",
        "locality": "Thiruparankundram",
        "wikidata_qid": null,
        "coordinates": "9.88, 78.08"
      }
    },
    {
      "index": 224,
      "name": "Sudarkozhundeeswarar Temple, Pennadam",
      "displayName": "Sudarkozhundeeswarar Temple, Pennadam",
      "missingFields": [
        "perumal",
        "thaayaar"
      ],
      "currentData": {
        "perumal": "Unknown",
        "thaayaar": null,
        "district": "Cuddalore",
        "locality": "Pennadam",
        "wikidata_qid": "Q16313961",
        "coordinates": "11.3833, 79.2333"
      }
    },
    {
      "index": 225,
      "name": "Sundararaja Perumal",
      "displayName": "Sundararaja Perumal",
      "missingFields": [
        "perumal",
        "thaayaar",
        "district"
      ],
      "currentData": {
        "perumal": "Unknown",
        "thaayaar": null,
        "district": null,
        "locality": "Perumpuliyur (Kumbakonam region)",
        "wikidata_qid": "Q121091479",
        "coordinates": "9.5452159, 78.5944291"
      }
    },
    {
      "index": 226,
      "name": "Swarnapureeswarar Temple, Andankoil",
      "displayName": "Swarnapureeswarar Temple, Andankoil",
      "missingFields": [
        "perumal",
        "thaayaar",
        "wikidata_qid"
      ],
      "currentData": {
        "perumal": "Unknown",
        "thaayaar": null,
        "district": "Thiruvarur",
        "locality": "Andan Koil",
        "wikidata_qid": null,
        "coordinates": "10.66, 79.6"
      }
    },
    {
      "index": 227,
      "name": "Swarnapureeswarar Temple, Semponnarkoil",
      "displayName": "Swarnapureeswarar Temple, Semponnarkoil",
      "missingFields": [
        "perumal",
        "thaayaar",
        "wikidata_qid"
      ],
      "currentData": {
        "perumal": "Unknown",
        "thaayaar": null,
        "district": "Mayiladuthurai",
        "locality": "Semponnarkoil",
        "wikidata_qid": null,
        "coordinates": "11.144, 79.748"
      }
    },
    {
      "index": 228,
      "name": "Swetharanyeswarar Temple, Thiruvenkadu",
      "displayName": "Swetharanyeswarar Temple, Thiruvenkadu",
      "missingFields": [
        "perumal",
        "thaayaar",
        "wikidata_qid"
      ],
      "currentData": {
        "perumal": "Unknown",
        "thaayaar": null,
        "district": "Mayiladuthurai",
        "locality": "Thiruvenkadu",
        "wikidata_qid": null,
        "coordinates": "11.196, 79.825"
      }
    },
    {
      "index": 229,
      "name": "Thanjapureeswarar Temple, Thanjavur",
      "displayName": "Thanjapureeswarar Temple, Thanjavur",
      "missingFields": [
        "perumal",
        "thaayaar",
        "wikidata_qid"
      ],
      "currentData": {
        "perumal": "Unknown",
        "thaayaar": null,
        "district": "Thanjavur",
        "locality": "Thanjavur",
        "wikidata_qid": null,
        "coordinates": "10.78, 79.13"
      }
    },
    {
      "index": 230,
      "name": "Thanthonreeswarar Temple, Aakkur",
      "displayName": "Thanthonreeswarar Temple, Aakkur",
      "missingFields": [
        "perumal",
        "thaayaar",
        "wikidata_qid"
      ],
      "currentData": {
        "perumal": "Unknown",
        "thaayaar": null,
        "district": "Mayiladuthurai",
        "locality": "Akkur",
        "wikidata_qid": null,
        "coordinates": "11.139, 79.782"
      }
    },
    {
      "index": 231,
      "name": "Thanthonriappar Temple, Akkur",
      "displayName": "Thanthonriappar Temple, Akkur",
      "missingFields": [
        "perumal",
        "thaayaar",
        "wikidata_qid"
      ],
      "currentData": {
        "perumal": "Unknown",
        "thaayaar": null,
        "district": "Mayiladuthurai",
        "locality": "Akkur",
        "wikidata_qid": null,
        "coordinates": "11.15, 79.6"
      }
    },
    {
      "index": 232,
      "name": "Tharugavaneshwarar Temple, Thirupparaithurai",
      "displayName": "Tharugavaneshwarar Temple, Thirupparaithurai",
      "missingFields": [
        "perumal",
        "thaayaar",
        "wikidata_qid"
      ],
      "currentData": {
        "perumal": "Unknown",
        "thaayaar": null,
        "district": "Tiruchirappalli",
        "locality": "Thirupparaithurai",
        "wikidata_qid": null,
        "coordinates": "10.834, 78.588"
      }
    },
    {
      "index": 233,
      "name": "Theerthapureeswarar Temple, Thiruthinai Nagar",
      "displayName": "Theerthapureeswarar Temple, Thiruthinai Nagar",
      "missingFields": [
        "perumal",
        "thaayaar",
        "wikidata_qid"
      ],
      "currentData": {
        "perumal": "Unknown",
        "thaayaar": null,
        "district": "Cuddalore",
        "locality": "Theerthanagiri",
        "wikidata_qid": null,
        "coordinates": "11.6667, 79.7833"
      }
    },
    {
      "index": 234,
      "name": "Theertheswarar Temple, Udayarpatti",
      "displayName": "Theertheswarar Temple, Udayarpatti",
      "missingFields": [
        "perumal",
        "thaayaar",
        "wikidata_qid"
      ],
      "currentData": {
        "perumal": "Unknown",
        "thaayaar": null,
        "district": "Thanjavur",
        "locality": "Udayarpatti",
        "wikidata_qid": null,
        "coordinates": "10.892, 79.135"
      }
    },
    {
      "index": 235,
      "name": "Theeyaadiyaappar Temple",
      "displayName": "Theeyaadiyaappar Temple",
      "missingFields": [
        "perumal",
        "thaayaar",
        "wikidata_qid"
      ],
      "currentData": {
        "perumal": "Unknown",
        "thaayaar": null,
        "district": "Mayiladuthurai",
        "locality": "Keezh Tiru Kattupalli",
        "wikidata_qid": null,
        "coordinates": "11.171, 79.834"
      }
    },
    {
      "index": 236,
      "name": "Thillai Natarajar Temple",
      "displayName": "Thillai Natarajar Temple",
      "missingFields": [
        "perumal",
        "thaayaar",
        "wikidata_qid"
      ],
      "currentData": {
        "perumal": "Unknown",
        "thaayaar": null,
        "district": "Cuddalore",
        "locality": "Chidambaram",
        "wikidata_qid": null,
        "coordinates": "11.39958, 79.69561"
      }
    },
    {
      "index": 237,
      "name": "Thillai Vilagam Ranganatha Perumal",
      "displayName": "Thillai Vilagam Ranganatha Perumal",
      "missingFields": [
        "perumal",
        "thaayaar",
        "district",
        "wikidata_qid"
      ],
      "currentData": {
        "perumal": "Unknown",
        "thaayaar": null,
        "district": null,
        "locality": "Near Pattukkottai",
        "wikidata_qid": null,
        "coordinates": "11.1271, 78.6569"
      }
    },
    {
      "index": 238,
      "name": "Thiru Kallil Sivan Temple",
      "displayName": "Thiru Kallil Sivan Temple",
      "missingFields": [
        "perumal",
        "thaayaar",
        "district",
        "wikidata_qid",
        "locality"
      ],
      "currentData": {
        "perumal": "Unknown",
        "thaayaar": null,
        "district": null,
        "locality": null,
        "wikidata_qid": null,
        "coordinates": "11.1271, 78.6569"
      }
    },
    {
      "index": 239,
      "name": "Thiru Madhavimangalam Madhava Perumal Temple",
      "displayName": "Thiru Madhavimangalam Madhava Perumal Temple",
      "missingFields": [
        "perumal",
        "thaayaar",
        "district",
        "wikidata_qid",
        "locality"
      ],
      "currentData": {
        "perumal": "Unknown",
        "thaayaar": null,
        "district": null,
        "locality": null,
        "wikidata_qid": null,
        "coordinates": "11.1271, 78.6569"
      }
    },
    {
      "index": 240,
      "name": "Thiru Oomathnadu Omkareswarar Temple",
      "displayName": "Thiru Oomathnadu Omkareswarar Temple",
      "missingFields": [
        "perumal",
        "thaayaar",
        "district",
        "wikidata_qid",
        "locality"
      ],
      "currentData": {
        "perumal": "Unknown",
        "thaayaar": null,
        "district": null,
        "locality": null,
        "wikidata_qid": null,
        "coordinates": "11.1271, 78.6569"
      }
    },
    {
      "index": 241,
      "name": "ThiruAali",
      "displayName": "ThiruAali",
      "missingFields": [
        "perumal",
        "thaayaar",
        "locality"
      ],
      "currentData": {
        "perumal": "Unknown",
        "thaayaar": null,
        "district": "Central division",
        "locality": "",
        "wikidata_qid": "Q6479573",
        "coordinates": "11.27, 79.74"
      }
    },
    {
      "index": 242,
      "name": "ThiruAheendrapuram",
      "displayName": "ThiruAheendrapuram",
      "missingFields": [
        "perumal",
        "thaayaar",
        "district",
        "wikidata_qid",
        "locality"
      ],
      "currentData": {
        "perumal": "Unknown",
        "thaayaar": null,
        "district": null,
        "locality": "",
        "wikidata_qid": null,
        "coordinates": "11.5, 79.8"
      }
    },
    {
      "index": 243,
      "name": "ThiruAllikkeni",
      "displayName": "ThiruAllikkeni",
      "missingFields": [
        "perumal",
        "thaayaar",
        "district",
        "wikidata_qid",
        "locality"
      ],
      "currentData": {
        "perumal": "Unknown",
        "thaayaar": null,
        "district": null,
        "locality": "",
        "wikidata_qid": null,
        "coordinates": "13.0339, 80.2619"
      }
    },
    {
      "index": 244,
      "name": "ThiruAnanthapuram",
      "displayName": "ThiruAnanthapuram",
      "missingFields": [
        "perumal",
        "thaayaar",
        "locality"
      ],
      "currentData": {
        "perumal": "Unknown",
        "thaayaar": null,
        "district": "Thiruvananthapuram district",
        "locality": "",
        "wikidata_qid": "Q1473969",
        "coordinates": "8.4833, 76.95"
      }
    },
    {
      "index": 245,
      "name": "ThiruAnbil",
      "displayName": "ThiruAnbil",
      "missingFields": [
        "perumal",
        "thaayaar",
        "locality"
      ],
      "currentData": {
        "perumal": "Unknown",
        "thaayaar": null,
        "district": "Tiruchirappalli district",
        "locality": "",
        "wikidata_qid": "Q2671548",
        "coordinates": "10.81, 78.75"
      }
    },
    {
      "index": 246,
      "name": "ThiruArangam",
      "displayName": "ThiruArangam",
      "missingFields": [
        "perumal",
        "thaayaar",
        "district",
        "locality"
      ],
      "currentData": {
        "perumal": "Unknown",
        "thaayaar": null,
        "district": null,
        "locality": "",
        "wikidata_qid": "Q135983201",
        "coordinates": "10.862, 78.696"
      }
    },
    {
      "index": 247,
      "name": "ThiruArimeya Vinnagaram",
      "displayName": "ThiruArimeya Vinnagaram",
      "missingFields": [
        "perumal",
        "thaayaar",
        "locality"
      ],
      "currentData": {
        "perumal": "Unknown",
        "thaayaar": null,
        "district": "Tamil Nadu",
        "locality": "",
        "wikidata_qid": "Q7585787",
        "coordinates": "11.24, 79.71"
      }
    },
    {
      "index": 248,
      "name": "ThiruAthanoor",
      "displayName": "ThiruAthanoor",
      "missingFields": [
        "perumal",
        "thaayaar",
        "district",
        "wikidata_qid",
        "locality"
      ],
      "currentData": {
        "perumal": "Unknown",
        "thaayaar": null,
        "district": null,
        "locality": "",
        "wikidata_qid": null,
        "coordinates": "10.95, 79.38"
      }
    },
    {
      "index": 249,
      "name": "ThiruAttabuyakaram",
      "displayName": "ThiruAttabuyakaram",
      "missingFields": [
        "perumal",
        "thaayaar",
        "district",
        "wikidata_qid",
        "locality"
      ],
      "currentData": {
        "perumal": "Unknown",
        "thaayaar": null,
        "district": null,
        "locality": "",
        "wikidata_qid": null,
        "coordinates": "12.82, 79.71"
      }
    },
    {
      "index": 250,
      "name": "ThiruAyodhi",
      "displayName": "ThiruAyodhi",
      "missingFields": [
        "perumal",
        "thaayaar",
        "district",
        "wikidata_qid",
        "locality"
      ],
      "currentData": {
        "perumal": "Unknown",
        "thaayaar": null,
        "district": null,
        "locality": "",
        "wikidata_qid": null,
        "coordinates": "26.7922, 82.1998"
      }
    },
    {
      "index": 251,
      "name": "ThiruAyppaadi",
      "displayName": "ThiruAyppaadi",
      "missingFields": [
        "perumal",
        "thaayaar",
        "district",
        "wikidata_qid",
        "locality"
      ],
      "currentData": {
        "perumal": "Unknown",
        "thaayaar": null,
        "district": null,
        "locality": "",
        "wikidata_qid": null,
        "coordinates": "27.4333, 77.7"
      }
    },
    {
      "index": 252,
      "name": "ThiruAzhundhur",
      "displayName": "ThiruAzhundhur",
      "missingFields": [
        "perumal",
        "thaayaar",
        "district",
        "wikidata_qid",
        "locality"
      ],
      "currentData": {
        "perumal": "Unknown",
        "thaayaar": null,
        "district": null,
        "locality": "",
        "wikidata_qid": null,
        "coordinates": "10.68, 79.72"
      }
    },
    {
      "index": 253,
      "name": "ThiruChenkundrur",
      "displayName": "ThiruChenkundrur",
      "missingFields": [
        "perumal",
        "thaayaar",
        "locality"
      ],
      "currentData": {
        "perumal": "Unknown",
        "thaayaar": null,
        "district": "Kerala",
        "locality": "",
        "wikidata_qid": "Q7798125",
        "coordinates": "9.3167, 76.6167"
      }
    },
    {
      "index": 254,
      "name": "ThiruCherai",
      "displayName": "ThiruCherai",
      "missingFields": [
        "perumal",
        "thaayaar",
        "locality"
      ],
      "currentData": {
        "perumal": "Unknown",
        "thaayaar": null,
        "district": "Thiruvananthapuram district",
        "locality": "",
        "wikidata_qid": "Q7785271",
        "coordinates": "10.92, 79.45"
      }
    },
    {
      "index": 255,
      "name": "ThiruChireevaramangai",
      "displayName": "ThiruChireevaramangai",
      "missingFields": [
        "perumal",
        "thaayaar",
        "district",
        "wikidata_qid",
        "locality"
      ],
      "currentData": {
        "perumal": "Unknown",
        "thaayaar": null,
        "district": null,
        "locality": "",
        "wikidata_qid": null,
        "coordinates": "8.4833, 77.6167"
      }
    },
    {
      "index": 256,
      "name": "ThiruChirupuliyoor",
      "displayName": "ThiruChirupuliyoor",
      "missingFields": [
        "perumal",
        "thaayaar",
        "district",
        "wikidata_qid",
        "locality"
      ],
      "currentData": {
        "perumal": "Unknown",
        "thaayaar": null,
        "district": null,
        "locality": "",
        "wikidata_qid": null,
        "coordinates": "10.65, 79.78"
      }
    },
    {
      "index": 257,
      "name": "ThiruChithrakootam",
      "displayName": "ThiruChithrakootam",
      "missingFields": [
        "perumal",
        "thaayaar",
        "district",
        "wikidata_qid",
        "locality"
      ],
      "currentData": {
        "perumal": "Unknown",
        "thaayaar": null,
        "district": null,
        "locality": "",
        "wikidata_qid": null,
        "coordinates": "11.3996, 79.6947"
      }
    },
    {
      "index": 258,
      "name": "ThiruEvvul",
      "displayName": "ThiruEvvul",
      "missingFields": [
        "perumal",
        "thaayaar",
        "locality"
      ],
      "currentData": {
        "perumal": "Unknown",
        "thaayaar": null,
        "district": "Tamil Nadu",
        "locality": "",
        "wikidata_qid": "Q16056568",
        "coordinates": "13.359, 79.9099"
      }
    },
    {
      "index": 259,
      "name": "ThiruIdaventhai",
      "displayName": "ThiruIdaventhai",
      "missingFields": [
        "perumal",
        "thaayaar",
        "district",
        "wikidata_qid",
        "locality"
      ],
      "currentData": {
        "perumal": "Unknown",
        "thaayaar": null,
        "district": null,
        "locality": "",
        "wikidata_qid": null,
        "coordinates": "12.7929, 80.1982"
      }
    },
    {
      "index": 260,
      "name": "ThiruIndhalur",
      "displayName": "ThiruIndhalur",
      "missingFields": [
        "perumal",
        "thaayaar",
        "district",
        "wikidata_qid",
        "locality"
      ],
      "currentData": {
        "perumal": "Unknown",
        "thaayaar": null,
        "district": null,
        "locality": "",
        "wikidata_qid": null,
        "coordinates": "11.1085, 79.6502"
      }
    },
    {
      "index": 261,
      "name": "ThiruKaatkarai",
      "displayName": "ThiruKaatkarai",
      "missingFields": [
        "perumal",
        "thaayaar",
        "district",
        "wikidata_qid",
        "locality"
      ],
      "currentData": {
        "perumal": "Unknown",
        "thaayaar": null,
        "district": null,
        "locality": "",
        "wikidata_qid": null,
        "coordinates": "10.0167, 76.35"
      }
    },
    {
      "index": 262,
      "name": "ThiruKaazhisrirama Vinnagaram",
      "displayName": "ThiruKaazhisrirama Vinnagaram",
      "missingFields": [
        "perumal",
        "thaayaar",
        "district",
        "wikidata_qid",
        "locality"
      ],
      "currentData": {
        "perumal": "Unknown",
        "thaayaar": null,
        "district": null,
        "locality": "",
        "wikidata_qid": null,
        "coordinates": "11.2333, 79.7"
      }
    },
    {
      "index": 263,
      "name": "ThiruKachchi",
      "displayName": "ThiruKachchi",
      "missingFields": [
        "perumal",
        "thaayaar",
        "locality"
      ],
      "currentData": {
        "perumal": "Unknown",
        "thaayaar": null,
        "district": "Northern Province",
        "locality": "",
        "wikidata_qid": "Q16309175",
        "coordinates": "12.8184, 79.7036"
      }
    },
    {
      "index": 264,
      "name": "ThiruKadanmallai",
      "displayName": "ThiruKadanmallai",
      "missingFields": [
        "perumal",
        "thaayaar",
        "district",
        "wikidata_qid",
        "locality"
      ],
      "currentData": {
        "perumal": "Unknown",
        "thaayaar": null,
        "district": null,
        "locality": "",
        "wikidata_qid": null,
        "coordinates": "12.6269, 80.192"
      }
    },
    {
      "index": 265,
      "name": "ThiruKadigai",
      "displayName": "ThiruKadigai",
      "missingFields": [
        "thaayaar",
        "locality"
      ],
      "currentData": {
        "perumal": "Lord Vishnu",
        "thaayaar": null,
        "district": "Tamil Nadu",
        "locality": "",
        "wikidata_qid": "Q24946811",
        "coordinates": "12.8369, 79.7126"
      }
    },
    {
      "index": 266,
      "name": "ThiruKadithaanam",
      "displayName": "ThiruKadithaanam",
      "missingFields": [
        "perumal",
        "thaayaar",
        "district",
        "wikidata_qid",
        "locality"
      ],
      "currentData": {
        "perumal": "Unknown",
        "thaayaar": null,
        "district": null,
        "locality": "",
        "wikidata_qid": null,
        "coordinates": "9.55, 76.45"
      }
    },
    {
      "index": 267,
      "name": "ThiruKalvanur",
      "displayName": "ThiruKalvanur",
      "missingFields": [
        "perumal",
        "thaayaar",
        "district",
        "locality"
      ],
      "currentData": {
        "perumal": "Unknown",
        "thaayaar": null,
        "district": null,
        "locality": "",
        "wikidata_qid": "Q26869189",
        "coordinates": "12.87, 79.76"
      }
    },
    {
      "index": 268,
      "name": "ThiruKandamennum Kadinagar",
      "displayName": "ThiruKandamennum Kadinagar",
      "missingFields": [
        "perumal",
        "thaayaar",
        "district",
        "wikidata_qid",
        "locality"
      ],
      "currentData": {
        "perumal": "Unknown",
        "thaayaar": null,
        "district": null,
        "locality": "",
        "wikidata_qid": null,
        "coordinates": "30.1459, 78.5977"
      }
    },
    {
      "index": 269,
      "name": "ThiruKandiyur",
      "displayName": "ThiruKandiyur",
      "missingFields": [
        "perumal",
        "thaayaar",
        "locality"
      ],
      "currentData": {
        "perumal": "Unknown",
        "thaayaar": null,
        "district": "Tamil Nadu",
        "locality": "",
        "wikidata_qid": "Q7585834",
        "coordinates": "10.79, 78.65"
      }
    },
    {
      "index": 270,
      "name": "ThiruKannamangai",
      "displayName": "ThiruKannamangai",
      "missingFields": [
        "perumal",
        "thaayaar",
        "locality"
      ],
      "currentData": {
        "perumal": "Unknown",
        "thaayaar": null,
        "district": "Tamil Nadu",
        "locality": "",
        "wikidata_qid": "Q4900870",
        "coordinates": "10.88, 79.48"
      }
    },
    {
      "index": 271,
      "name": "ThiruKannangudi",
      "displayName": "ThiruKannangudi",
      "missingFields": [
        "perumal",
        "thaayaar",
        "locality"
      ],
      "currentData": {
        "perumal": "Unknown",
        "thaayaar": null,
        "district": "India",
        "locality": "",
        "wikidata_qid": "Q2808356",
        "coordinates": "10.82, 79.55"
      }
    },
    {
      "index": 272,
      "name": "ThiruKannapuram",
      "displayName": "ThiruKannapuram",
      "missingFields": [
        "perumal",
        "thaayaar",
        "locality"
      ],
      "currentData": {
        "perumal": "Unknown",
        "thaayaar": null,
        "district": "India",
        "locality": "",
        "wikidata_qid": "Q13651696",
        "coordinates": "10.85, 79.52"
      }
    },
    {
      "index": 273,
      "name": "ThiruKaragam",
      "displayName": "ThiruKaragam",
      "missingFields": [
        "perumal",
        "thaayaar",
        "locality"
      ],
      "currentData": {
        "perumal": "Unknown",
        "thaayaar": null,
        "district": "India",
        "locality": "",
        "wikidata_qid": "Q28174020",
        "coordinates": "12.86, 79.75"
      }
    },
    {
      "index": 274,
      "name": "ThiruKarambanoor",
      "displayName": "ThiruKarambanoor",
      "missingFields": [
        "perumal",
        "thaayaar",
        "district",
        "locality"
      ],
      "currentData": {
        "perumal": "Unknown",
        "thaayaar": null,
        "district": null,
        "locality": "",
        "wikidata_qid": "Q12984038",
        "coordinates": "10.78, 78.72"
      }
    },
    {
      "index": 275,
      "name": "ThiruKarvanam",
      "displayName": "ThiruKarvanam",
      "missingFields": [
        "perumal",
        "thaayaar",
        "district",
        "locality"
      ],
      "currentData": {
        "perumal": "Unknown",
        "thaayaar": null,
        "district": null,
        "locality": "",
        "wikidata_qid": "Q19807671",
        "coordinates": "12.865, 79.755"
      }
    },
    {
      "index": 276,
      "name": "ThiruKavalambadi",
      "displayName": "ThiruKavalambadi",
      "missingFields": [
        "perumal",
        "thaayaar",
        "district",
        "wikidata_qid",
        "locality"
      ],
      "currentData": {
        "perumal": "Unknown",
        "thaayaar": null,
        "district": null,
        "locality": "",
        "wikidata_qid": null,
        "coordinates": "11.12, 79.68"
      }
    },
    {
      "index": 277,
      "name": "ThiruKavithalam",
      "displayName": "ThiruKavithalam",
      "missingFields": [
        "perumal",
        "thaayaar",
        "district",
        "locality"
      ],
      "currentData": {
        "perumal": "Unknown",
        "thaayaar": null,
        "district": null,
        "locality": "",
        "wikidata_qid": "Q2642068",
        "coordinates": "11.01, 79.45"
      }
    },
    {
      "index": 278,
      "name": "ThiruKoazhi",
      "displayName": "ThiruKoazhi",
      "missingFields": [
        "perumal",
        "thaayaar",
        "district",
        "wikidata_qid",
        "locality"
      ],
      "currentData": {
        "perumal": "Unknown",
        "thaayaar": null,
        "district": null,
        "locality": "",
        "wikidata_qid": null,
        "coordinates": "10.75, 79.6"
      }
    },
    {
      "index": 279,
      "name": "ThiruKolur",
      "displayName": "ThiruKolur",
      "missingFields": [
        "perumal",
        "thaayaar",
        "locality"
      ],
      "currentData": {
        "perumal": "Unknown",
        "thaayaar": null,
        "district": "India",
        "locality": "",
        "wikidata_qid": "Q7908890",
        "coordinates": "8.6333, 77.9333"
      }
    },
    {
      "index": 280,
      "name": "ThiruKoodalur",
      "displayName": "ThiruKoodalur",
      "missingFields": [
        "perumal",
        "thaayaar",
        "locality"
      ],
      "currentData": {
        "perumal": "Unknown",
        "thaayaar": null,
        "district": "Tamil Nadu",
        "locality": "",
        "wikidata_qid": "Q7899087",
        "coordinates": "11.02, 79.48"
      }
    },
    {
      "index": 281,
      "name": "ThiruKottiyur",
      "displayName": "ThiruKottiyur",
      "missingFields": [
        "perumal",
        "thaayaar",
        "locality"
      ],
      "currentData": {
        "perumal": "Unknown",
        "thaayaar": null,
        "district": "Kerala",
        "locality": "",
        "wikidata_qid": "Q13111619",
        "coordinates": "9.7667, 78.2167"
      }
    },
    {
      "index": 282,
      "name": "ThiruKovalur",
      "displayName": "ThiruKovalur",
      "missingFields": [
        "perumal",
        "thaayaar",
        "locality"
      ],
      "currentData": {
        "perumal": "Unknown",
        "thaayaar": null,
        "district": "India",
        "locality": "",
        "wikidata_qid": "Q7878689",
        "coordinates": "11.9667, 78.8667"
      }
    },
    {
      "index": 283,
      "name": "ThiruKudal",
      "displayName": "ThiruKudal",
      "missingFields": [
        "perumal",
        "thaayaar",
        "locality"
      ],
      "currentData": {
        "perumal": "Unknown",
        "thaayaar": null,
        "district": "Konkan division",
        "locality": "",
        "wikidata_qid": "Q5587898",
        "coordinates": "9.9252, 78.1198"
      }
    },
    {
      "index": 284,
      "name": "ThiruKudanthai",
      "displayName": "ThiruKudanthai",
      "missingFields": [
        "perumal",
        "thaayaar",
        "wikidata_qid",
        "locality"
      ],
      "currentData": {
        "perumal": "Unknown",
        "thaayaar": null,
        "district": "Tamil Nadu",
        "locality": "",
        "wikidata_qid": null,
        "coordinates": "10.95537, 79.4004"
      }
    },
    {
      "index": 285,
      "name": "ThiruKulandhai",
      "displayName": "ThiruKulandhai",
      "missingFields": [
        "perumal",
        "thaayaar",
        "wikidata_qid",
        "locality"
      ],
      "currentData": {
        "perumal": "Unknown",
        "thaayaar": null,
        "district": "Tamil Nadu",
        "locality": "",
        "wikidata_qid": null,
        "coordinates": "8.63, 77.93"
      }
    },
    {
      "index": 286,
      "name": "ThiruKurugur",
      "displayName": "ThiruKurugur",
      "missingFields": [
        "perumal",
        "thaayaar",
        "district",
        "locality"
      ],
      "currentData": {
        "perumal": "Unknown",
        "thaayaar": null,
        "district": null,
        "locality": "",
        "wikidata_qid": "Q448316",
        "coordinates": "8.64, 77.94"
      }
    },
    {
      "index": 287,
      "name": "ThiruKurungudi",
      "displayName": "ThiruKurungudi",
      "missingFields": [
        "perumal",
        "thaayaar",
        "locality"
      ],
      "currentData": {
        "perumal": "Unknown",
        "thaayaar": null,
        "district": "Tamil Nadu",
        "locality": "",
        "wikidata_qid": "Q16056580",
        "coordinates": "8.8833, 77.2833"
      }
    },
    {
      "index": 288,
      "name": "ThiruMaaliruncholai",
      "displayName": "ThiruMaaliruncholai",
      "missingFields": [
        "perumal",
        "thaayaar",
        "district",
        "wikidata_qid",
        "locality"
      ],
      "currentData": {
        "perumal": "Unknown",
        "thaayaar": null,
        "district": null,
        "locality": "",
        "wikidata_qid": null,
        "coordinates": "9.8667, 78.0667"
      }
    },
    {
      "index": 289,
      "name": "ThiruManikkoodam",
      "displayName": "ThiruManikkoodam",
      "missingFields": [
        "perumal",
        "thaayaar",
        "locality"
      ],
      "currentData": {
        "perumal": "Unknown",
        "thaayaar": null,
        "district": "Tamil Nadu",
        "locality": "",
        "wikidata_qid": "Q7785341",
        "coordinates": "11.285, 79.755"
      }
    },
    {
      "index": 290,
      "name": "ThiruManimaada Kovil",
      "displayName": "ThiruManimaada Kovil",
      "missingFields": [
        "perumal",
        "thaayaar",
        "district",
        "wikidata_qid",
        "locality"
      ],
      "currentData": {
        "perumal": "Unknown",
        "thaayaar": null,
        "district": null,
        "locality": "",
        "wikidata_qid": null,
        "coordinates": "11.255, 79.725"
      }
    },
    {
      "index": 291,
      "name": "Thirumeni Azhagar Temple, Mahendrapalli",
      "displayName": "Thirumeni Azhagar Temple, Mahendrapalli",
      "missingFields": [
        "perumal",
        "thaayaar",
        "wikidata_qid"
      ],
      "currentData": {
        "perumal": "Unknown",
        "thaayaar": null,
        "district": "Mayiladuthurai",
        "locality": "Mahendrapalli",
        "wikidata_qid": null,
        "coordinates": "11.35, 79.77"
      }
    },
    {
      "index": 292,
      "name": "Thirumetrakeeswarar Temple, Kanchipuram",
      "displayName": "Thirumetrakeeswarar Temple, Kanchipuram",
      "missingFields": [
        "perumal",
        "thaayaar",
        "wikidata_qid"
      ],
      "currentData": {
        "perumal": "Unknown",
        "thaayaar": null,
        "district": "Kanchipuram",
        "locality": "Kanchipuram",
        "wikidata_qid": null,
        "coordinates": "12.83, 79.7"
      }
    },
    {
      "index": 293,
      "name": "ThiruMeyyam",
      "displayName": "ThiruMeyyam",
      "missingFields": [
        "perumal",
        "thaayaar",
        "wikidata_qid",
        "locality"
      ],
      "currentData": {
        "perumal": "Unknown",
        "thaayaar": null,
        "district": "Tamil Nadu",
        "locality": "",
        "wikidata_qid": null,
        "coordinates": "9.5667, 78.4167"
      }
    },
    {
      "index": 294,
      "name": "ThiruMogur",
      "displayName": "ThiruMogur",
      "missingFields": [
        "perumal",
        "thaayaar",
        "locality"
      ],
      "currentData": {
        "perumal": "Unknown",
        "thaayaar": null,
        "district": "India",
        "locality": "",
        "wikidata_qid": "Q12984252",
        "coordinates": "9.85, 78.15"
      }
    },
    {
      "index": 295,
      "name": "ThiruMoozhikkalam",
      "displayName": "ThiruMoozhikkalam",
      "missingFields": [
        "perumal",
        "thaayaar",
        "wikidata_qid",
        "locality"
      ],
      "currentData": {
        "perumal": "Unknown",
        "thaayaar": null,
        "district": "Tamil Nadu",
        "locality": "",
        "wikidata_qid": null,
        "coordinates": "10.7833, 75.9833"
      }
    },
    {
      "index": 296,
      "name": "ThiruNaagai",
      "displayName": "ThiruNaagai",
      "missingFields": [
        "perumal",
        "thaayaar",
        "district",
        "locality"
      ],
      "currentData": {
        "perumal": "Unknown",
        "thaayaar": null,
        "district": null,
        "locality": "",
        "wikidata_qid": "Q6419183",
        "coordinates": "10.7672, 79.842"
      }
    },
    {
      "index": 297,
      "name": "ThiruNaavaai",
      "displayName": "ThiruNaavaai",
      "missingFields": [
        "perumal",
        "thaayaar",
        "district",
        "wikidata_qid",
        "locality"
      ],
      "currentData": {
        "perumal": "Unknown",
        "thaayaar": null,
        "district": null,
        "locality": "",
        "wikidata_qid": null,
        "coordinates": "10.8833, 76.0667"
      }
    },
    {
      "index": 298,
      "name": "ThiruNaimisaranyam",
      "displayName": "ThiruNaimisaranyam",
      "missingFields": [
        "perumal",
        "thaayaar",
        "locality"
      ],
      "currentData": {
        "perumal": "Unknown",
        "thaayaar": null,
        "district": "India",
        "locality": "",
        "wikidata_qid": "Q6959679",
        "coordinates": "27.25, 80.15"
      }
    },
    {
      "index": 299,
      "name": "ThiruNandipura Vinnagaram",
      "displayName": "ThiruNandipura Vinnagaram",
      "missingFields": [
        "perumal",
        "thaayaar",
        "locality"
      ],
      "currentData": {
        "perumal": "Unknown",
        "thaayaar": null,
        "district": "Tamil Nadu",
        "locality": "",
        "wikidata_qid": "Q7785389",
        "coordinates": "10.79, 79.15"
      }
    },
    {
      "index": 300,
      "name": "ThiruNaraiyur",
      "displayName": "ThiruNaraiyur",
      "missingFields": [
        "perumal",
        "thaayaar",
        "locality"
      ],
      "currentData": {
        "perumal": "Unknown",
        "thaayaar": null,
        "district": "India",
        "locality": "",
        "wikidata_qid": "Q31368485",
        "coordinates": "10.75, 79.6"
      }
    },
    {
      "index": 301,
      "name": "ThiruNeeragam",
      "displayName": "ThiruNeeragam",
      "missingFields": [
        "perumal",
        "thaayaar",
        "locality"
      ],
      "currentData": {
        "perumal": "Unknown",
        "thaayaar": null,
        "district": "Tamil Nadu",
        "locality": "",
        "wikidata_qid": "Q19807727",
        "coordinates": "12.835, 79.725"
      }
    },
    {
      "index": 302,
      "name": "ThiruNeermalai",
      "displayName": "ThiruNeermalai",
      "missingFields": [
        "perumal",
        "thaayaar",
        "locality"
      ],
      "currentData": {
        "perumal": "Unknown",
        "thaayaar": null,
        "district": "Chennai district",
        "locality": "",
        "wikidata_qid": "Q3522649",
        "coordinates": "12.95, 80.05"
      }
    },
    {
      "index": 303,
      "name": "ThiruNilathingal Thundam",
      "displayName": "ThiruNilathingal Thundam",
      "missingFields": [
        "perumal",
        "thaayaar",
        "locality"
      ],
      "currentData": {
        "perumal": "Unknown",
        "thaayaar": null,
        "district": "Chingleput District",
        "locality": "",
        "wikidata_qid": "Q3522369",
        "coordinates": "12.845, 79.735"
      }
    },
    {
      "index": 304,
      "name": "ThiruNindravur",
      "displayName": "ThiruNindravur",
      "missingFields": [
        "perumal",
        "thaayaar",
        "locality"
      ],
      "currentData": {
        "perumal": "Unknown",
        "thaayaar": null,
        "district": "Tamil Nadu",
        "locality": "",
        "wikidata_qid": "Q2716203",
        "coordinates": "13.05, 80.05"
      }
    },
    {
      "index": 305,
      "name": "ThiruOoragam",
      "displayName": "ThiruOoragam",
      "missingFields": [
        "perumal",
        "thaayaar",
        "locality"
      ],
      "currentData": {
        "perumal": "Unknown",
        "thaayaar": null,
        "district": "Tamil Nadu",
        "locality": "",
        "wikidata_qid": "Q12976736",
        "coordinates": "12.85, 79.74"
      }
    },
    {
      "index": 306,
      "name": "ThiruPaadagam",
      "displayName": "ThiruPaadagam",
      "missingFields": [
        "perumal",
        "thaayaar",
        "locality"
      ],
      "currentData": {
        "perumal": "Unknown",
        "thaayaar": null,
        "district": "India",
        "locality": "",
        "wikidata_qid": "Q7130525",
        "coordinates": "12.84, 79.73"
      }
    },
    {
      "index": 307,
      "name": "ThiruPaarkadal",
      "displayName": "ThiruPaarkadal",
      "missingFields": [
        "perumal",
        "thaayaar",
        "locality",
        "coordinates"
      ],
      "currentData": {
        "perumal": "Unknown",
        "thaayaar": null,
        "district": "India",
        "locality": "",
        "wikidata_qid": "Q12989291",
        "coordinates": "0, 0"
      }
    },
    {
      "index": 308,
      "name": "ThiruParamapatham",
      "displayName": "ThiruParamapatham",
      "missingFields": [
        "perumal",
        "thaayaar",
        "district",
        "wikidata_qid",
        "locality",
        "coordinates"
      ],
      "currentData": {
        "perumal": "Unknown",
        "thaayaar": null,
        "district": null,
        "locality": "",
        "wikidata_qid": null,
        "coordinates": "0, 0"
      }
    },
    {
      "index": 309,
      "name": "ThiruParameswara Vinnagaram",
      "displayName": "ThiruParameswara Vinnagaram",
      "missingFields": [
        "perumal",
        "thaayaar",
        "wikidata_qid",
        "locality"
      ],
      "currentData": {
        "perumal": "Unknown",
        "thaayaar": null,
        "district": "Tamil Nadu",
        "locality": "",
        "wikidata_qid": null,
        "coordinates": "12.88, 79.77"
      }
    },
    {
      "index": 310,
      "name": "ThiruParthan Palli",
      "displayName": "ThiruParthan Palli",
      "missingFields": [
        "perumal",
        "thaayaar",
        "district",
        "wikidata_qid",
        "locality"
      ],
      "currentData": {
        "perumal": "Unknown",
        "thaayaar": null,
        "district": null,
        "locality": "",
        "wikidata_qid": null,
        "coordinates": "11.295, 79.765"
      }
    },
    {
      "index": 311,
      "name": "ThiruPavalavannam",
      "displayName": "ThiruPavalavannam",
      "missingFields": [
        "perumal",
        "thaayaar",
        "wikidata_qid",
        "locality"
      ],
      "currentData": {
        "perumal": "Unknown",
        "thaayaar": null,
        "district": "Tamil Nadu",
        "locality": "",
        "wikidata_qid": null,
        "coordinates": "12.875, 79.765"
      }
    },
    {
      "index": 312,
      "name": "ThiruPer Nagar",
      "displayName": "ThiruPer Nagar",
      "missingFields": [
        "perumal",
        "thaayaar",
        "wikidata_qid",
        "locality"
      ],
      "currentData": {
        "perumal": "Unknown",
        "thaayaar": null,
        "district": "Chennai district",
        "locality": "",
        "wikidata_qid": null,
        "coordinates": "10.83, 78.68"
      }
    },
    {
      "index": 313,
      "name": "ThiruPerai",
      "displayName": "ThiruPerai",
      "missingFields": [
        "perumal",
        "thaayaar",
        "locality"
      ],
      "currentData": {
        "perumal": "Unknown",
        "thaayaar": null,
        "district": "India",
        "locality": "",
        "wikidata_qid": "Q6738744",
        "coordinates": "8.6366, 77.9366"
      }
    },
    {
      "index": 314,
      "name": "ThiruPiruthi",
      "displayName": "ThiruPiruthi",
      "missingFields": [
        "perumal",
        "thaayaar",
        "locality"
      ],
      "currentData": {
        "perumal": "Unknown",
        "thaayaar": null,
        "district": "India",
        "locality": "",
        "wikidata_qid": "Q19694764",
        "coordinates": "30.3167, 79.3167"
      }
    },
    {
      "index": 315,
      "name": "ThiruPulingudi",
      "displayName": "ThiruPulingudi",
      "missingFields": [
        "perumal",
        "thaayaar",
        "locality"
      ],
      "currentData": {
        "perumal": "Unknown",
        "thaayaar": null,
        "district": "India",
        "locality": "",
        "wikidata_qid": "Q7785239",
        "coordinates": "8.6233, 77.9233"
      }
    },
    {
      "index": 316,
      "name": "ThiruPuliyur",
      "displayName": "ThiruPuliyur",
      "missingFields": [
        "perumal",
        "thaayaar",
        "locality"
      ],
      "currentData": {
        "perumal": "Unknown",
        "thaayaar": null,
        "district": "Kerala",
        "locality": "",
        "wikidata_qid": "Q4784133",
        "coordinates": "9.25, 76.55"
      }
    },
    {
      "index": 317,
      "name": "ThiruPullaani",
      "displayName": "ThiruPullaani",
      "missingFields": [
        "perumal",
        "thaayaar",
        "district",
        "wikidata_qid",
        "locality"
      ],
      "currentData": {
        "perumal": "Unknown",
        "thaayaar": null,
        "district": null,
        "locality": "",
        "wikidata_qid": null,
        "coordinates": "9.2885, 79.3129"
      }
    },
    {
      "index": 318,
      "name": "ThiruPullam boothangudi",
      "displayName": "ThiruPullam boothangudi",
      "missingFields": [
        "perumal",
        "thaayaar",
        "district",
        "wikidata_qid",
        "locality"
      ],
      "currentData": {
        "perumal": "Unknown",
        "thaayaar": null,
        "district": null,
        "locality": "",
        "wikidata_qid": null,
        "coordinates": "10.98, 79.42"
      }
    },
    {
      "index": 319,
      "name": "ThiruPutkuzhi",
      "displayName": "ThiruPutkuzhi",
      "missingFields": [
        "perumal",
        "thaayaar",
        "locality"
      ],
      "currentData": {
        "perumal": "Unknown",
        "thaayaar": null,
        "district": "Tamil Nadu",
        "locality": "",
        "wikidata_qid": "Q7785443",
        "coordinates": "12.9, 79.8"
      }
    },
    {
      "index": 320,
      "name": "ThiruSalagraamam",
      "displayName": "ThiruSalagraamam",
      "missingFields": [
        "perumal",
        "thaayaar",
        "district",
        "wikidata_qid",
        "locality"
      ],
      "currentData": {
        "perumal": "Unknown",
        "thaayaar": null,
        "district": null,
        "locality": "",
        "wikidata_qid": null,
        "coordinates": "28.8167, 83.8667"
      }
    },
    {
      "index": 321,
      "name": "ThiruSemponsei Kovil",
      "displayName": "ThiruSemponsei Kovil",
      "missingFields": [
        "perumal",
        "thaayaar",
        "district",
        "wikidata_qid",
        "locality"
      ],
      "currentData": {
        "perumal": "Unknown",
        "thaayaar": null,
        "district": null,
        "locality": "",
        "wikidata_qid": null,
        "coordinates": "11.25, 79.72"
      }
    },
    {
      "index": 322,
      "name": "ThiruSingavelkundram",
      "displayName": "ThiruSingavelkundram",
      "missingFields": [
        "perumal",
        "thaayaar",
        "district",
        "wikidata_qid",
        "locality"
      ],
      "currentData": {
        "perumal": "Unknown",
        "thaayaar": null,
        "district": null,
        "locality": "",
        "wikidata_qid": null,
        "coordinates": "15.6167, 78.8833"
      }
    },
    {
      "index": 323,
      "name": "ThiruThalaichanganaanmadhiyam",
      "displayName": "ThiruThalaichanganaanmadhiyam",
      "missingFields": [
        "perumal",
        "thaayaar",
        "district",
        "wikidata_qid",
        "locality"
      ],
      "currentData": {
        "perumal": "Unknown",
        "thaayaar": null,
        "district": null,
        "locality": "",
        "wikidata_qid": null,
        "coordinates": "10.62, 79.82"
      }
    },
    {
      "index": 324,
      "name": "Thiruthalinathar Temple, Thirupputhur",
      "displayName": "Thiruthalinathar Temple, Thirupputhur",
      "missingFields": [
        "perumal",
        "thaayaar",
        "wikidata_qid"
      ],
      "currentData": {
        "perumal": "Unknown",
        "thaayaar": null,
        "district": "Sivaganga",
        "locality": "Thiruppathur",
        "wikidata_qid": null,
        "coordinates": "10.13, 78.6"
      }
    },
    {
      "index": 325,
      "name": "ThiruThanjai Maamani Kovil",
      "displayName": "ThiruThanjai Maamani Kovil",
      "missingFields": [
        "perumal",
        "thaayaar",
        "district",
        "wikidata_qid",
        "locality"
      ],
      "currentData": {
        "perumal": "Unknown",
        "thaayaar": null,
        "district": null,
        "locality": "",
        "wikidata_qid": null,
        "coordinates": "10.787, 79.1378"
      }
    },
    {
      "index": 326,
      "name": "ThiruThankaa",
      "displayName": "ThiruThankaa",
      "missingFields": [
        "perumal",
        "thaayaar",
        "district",
        "wikidata_qid",
        "locality"
      ],
      "currentData": {
        "perumal": "Unknown",
        "thaayaar": null,
        "district": null,
        "locality": "",
        "wikidata_qid": null,
        "coordinates": "12.825, 79.715"
      }
    },
    {
      "index": 327,
      "name": "ThiruThankaal",
      "displayName": "ThiruThankaal",
      "missingFields": [
        "perumal",
        "thaayaar",
        "locality"
      ],
      "currentData": {
        "perumal": "Unknown",
        "thaayaar": null,
        "district": "Tamil Nadu",
        "locality": "",
        "wikidata_qid": "Q19807709",
        "coordinates": "9.4833, 77.8167"
      }
    },
    {
      "index": 328,
      "name": "ThiruThetriyambalam",
      "displayName": "ThiruThetriyambalam",
      "missingFields": [
        "perumal",
        "thaayaar",
        "locality"
      ],
      "currentData": {
        "perumal": "Unknown",
        "thaayaar": null,
        "district": "Tamil Nadu",
        "locality": "",
        "wikidata_qid": "Q7785453",
        "coordinates": "11.28, 79.75"
      }
    },
    {
      "index": 329,
      "name": "ThiruThevanaarthogai",
      "displayName": "ThiruThevanaarthogai",
      "missingFields": [
        "perumal",
        "thaayaar",
        "district",
        "wikidata_qid",
        "locality"
      ],
      "currentData": {
        "perumal": "Unknown",
        "thaayaar": null,
        "district": null,
        "locality": "",
        "wikidata_qid": null,
        "coordinates": "11.275, 79.745"
      }
    },
    {
      "index": 330,
      "name": "ThiruThulaivillimangalam",
      "displayName": "ThiruThulaivillimangalam",
      "missingFields": [
        "perumal",
        "thaayaar",
        "district",
        "wikidata_qid",
        "locality"
      ],
      "currentData": {
        "perumal": "Unknown",
        "thaayaar": null,
        "district": null,
        "locality": "",
        "wikidata_qid": null,
        "coordinates": "8.6266, 77.9266"
      }
    },
    {
      "index": 331,
      "name": "ThiruThuvarai",
      "displayName": "ThiruThuvarai",
      "missingFields": [
        "perumal",
        "thaayaar",
        "district",
        "locality"
      ],
      "currentData": {
        "perumal": "Unknown",
        "thaayaar": null,
        "district": null,
        "locality": "",
        "wikidata_qid": "Q7919043",
        "coordinates": "22.2394, 68.9678"
      }
    },
    {
      "index": 332,
      "name": "ThiruVaaranvilai",
      "displayName": "ThiruVaaranvilai",
      "missingFields": [
        "perumal",
        "thaayaar",
        "wikidata_qid",
        "locality"
      ],
      "currentData": {
        "perumal": "Unknown",
        "thaayaar": null,
        "district": "Tamil Nadu",
        "locality": "",
        "wikidata_qid": null,
        "coordinates": "9.2833, 76.6667"
      }
    },
    {
      "index": 333,
      "name": "ThiruVaattaaru",
      "displayName": "ThiruVaattaaru",
      "missingFields": [
        "perumal",
        "thaayaar",
        "district",
        "wikidata_qid",
        "locality"
      ],
      "currentData": {
        "perumal": "Unknown",
        "thaayaar": null,
        "district": null,
        "locality": "",
        "wikidata_qid": null,
        "coordinates": "8.3167, 77.2833"
      }
    },
    {
      "index": 334,
      "name": "ThiruVada Madurai",
      "displayName": "ThiruVada Madurai",
      "missingFields": [
        "perumal",
        "thaayaar",
        "locality"
      ],
      "currentData": {
        "perumal": "Unknown",
        "thaayaar": null,
        "district": "India",
        "locality": "",
        "wikidata_qid": "Q7137113",
        "coordinates": "27.4924, 77.6737"
      }
    },
    {
      "index": 335,
      "name": "ThiruVadari",
      "displayName": "ThiruVadari",
      "missingFields": [
        "perumal",
        "thaayaar",
        "district",
        "wikidata_qid",
        "locality"
      ],
      "currentData": {
        "perumal": "Unknown",
        "thaayaar": null,
        "district": null,
        "locality": "",
        "wikidata_qid": null,
        "coordinates": "30.7433, 79.4938"
      }
    },
    {
      "index": 336,
      "name": "ThiruVaikuntam",
      "displayName": "ThiruVaikuntam",
      "missingFields": [
        "perumal",
        "thaayaar",
        "locality"
      ],
      "currentData": {
        "perumal": "Unknown",
        "thaayaar": null,
        "district": "Tiruchirappalli district",
        "locality": "",
        "wikidata_qid": "Q2715777",
        "coordinates": "8.6167, 77.9167"
      }
    },
    {
      "index": 337,
      "name": "ThiruVaikuntha Vinnagaram",
      "displayName": "ThiruVaikuntha Vinnagaram",
      "missingFields": [
        "perumal",
        "thaayaar",
        "wikidata_qid",
        "locality"
      ],
      "currentData": {
        "perumal": "Unknown",
        "thaayaar": null,
        "district": "Tamil Nadu",
        "locality": "",
        "wikidata_qid": null,
        "coordinates": "11.26, 79.73"
      }
    },
    {
      "index": 338,
      "name": "ThiruVallavaazh",
      "displayName": "ThiruVallavaazh",
      "missingFields": [
        "perumal",
        "thaayaar",
        "district",
        "wikidata_qid",
        "locality"
      ],
      "currentData": {
        "perumal": "Unknown",
        "thaayaar": null,
        "district": null,
        "locality": "",
        "wikidata_qid": null,
        "coordinates": "9.3833, 76.4667"
      }
    },
    {
      "index": 339,
      "name": "Thiruvanjikulam Mahadeva Temple",
      "displayName": "Thiruvanjikulam Mahadeva Temple",
      "missingFields": [
        "perumal",
        "thaayaar",
        "wikidata_qid"
      ],
      "currentData": {
        "perumal": "Unknown",
        "thaayaar": null,
        "district": "Thrissur",
        "locality": "Kodungallur",
        "wikidata_qid": null,
        "coordinates": "10.222, 76.2"
      }
    },
    {
      "index": 340,
      "name": "ThiruVannparisaaram",
      "displayName": "ThiruVannparisaaram",
      "missingFields": [
        "perumal",
        "thaayaar",
        "district",
        "wikidata_qid",
        "locality"
      ],
      "currentData": {
        "perumal": "Unknown",
        "thaayaar": null,
        "district": null,
        "locality": "",
        "wikidata_qid": null,
        "coordinates": "8.2833, 77.3167"
      }
    },
    {
      "index": 341,
      "name": "ThiruVanpurushothamam",
      "displayName": "ThiruVanpurushothamam",
      "missingFields": [
        "perumal",
        "thaayaar",
        "locality"
      ],
      "currentData": {
        "perumal": "Unknown",
        "thaayaar": null,
        "district": "Tamil Nadu",
        "locality": "",
        "wikidata_qid": "Q7785519",
        "coordinates": "11.245, 79.715"
      }
    },
    {
      "index": 342,
      "name": "ThiruVanvandur",
      "displayName": "ThiruVanvandur",
      "missingFields": [
        "perumal",
        "thaayaar",
        "locality"
      ],
      "currentData": {
        "perumal": "Unknown",
        "thaayaar": null,
        "district": "India",
        "locality": "",
        "wikidata_qid": "Q928959",
        "coordinates": "9.4167, 76.5833"
      }
    },
    {
      "index": 343,
      "name": "ThiruVaragunamangai",
      "displayName": "ThiruVaragunamangai",
      "missingFields": [
        "perumal",
        "thaayaar",
        "locality"
      ],
      "currentData": {
        "perumal": "Unknown",
        "thaayaar": null,
        "district": "Tamil Nadu",
        "locality": "",
        "wikidata_qid": "Q7785241",
        "coordinates": "8.62, 77.92"
      }
    },
    {
      "index": 344,
      "name": "ThiruVeggaa",
      "displayName": "ThiruVeggaa",
      "missingFields": [
        "perumal",
        "thaayaar",
        "district",
        "wikidata_qid",
        "locality"
      ],
      "currentData": {
        "perumal": "Unknown",
        "thaayaar": null,
        "district": null,
        "locality": "",
        "wikidata_qid": null,
        "coordinates": "12.855, 79.745"
      }
    },
    {
      "index": 345,
      "name": "ThiruVellakkulam",
      "displayName": "ThiruVellakkulam",
      "missingFields": [
        "perumal",
        "thaayaar",
        "locality"
      ],
      "currentData": {
        "perumal": "Unknown",
        "thaayaar": null,
        "district": "Tamil Nadu",
        "locality": "",
        "wikidata_qid": "Q7785541",
        "coordinates": "11.29, 79.76"
      }
    },
    {
      "index": 346,
      "name": "ThiruVellarai",
      "displayName": "ThiruVellarai",
      "missingFields": [
        "perumal",
        "thaayaar",
        "locality"
      ],
      "currentData": {
        "perumal": "Unknown",
        "thaayaar": null,
        "district": "Tiruchirappalli district",
        "locality": "",
        "wikidata_qid": "Q23738953",
        "coordinates": "10.84, 78.62"
      }
    },
    {
      "index": 347,
      "name": "ThiruVelliyangudi",
      "displayName": "ThiruVelliyangudi",
      "missingFields": [
        "perumal",
        "thaayaar",
        "wikidata_qid",
        "locality"
      ],
      "currentData": {
        "perumal": "Unknown",
        "thaayaar": null,
        "district": "Tamil Nadu",
        "locality": "",
        "wikidata_qid": null,
        "coordinates": "10.72, 79.68"
      }
    },
    {
      "index": 348,
      "name": "ThiruVelukkai",
      "displayName": "ThiruVelukkai",
      "missingFields": [
        "perumal",
        "thaayaar",
        "wikidata_qid",
        "locality"
      ],
      "currentData": {
        "perumal": "Unknown",
        "thaayaar": null,
        "district": "Tamil Nadu",
        "locality": "",
        "wikidata_qid": null,
        "coordinates": "12.83, 79.72"
      }
    },
    {
      "index": 349,
      "name": "ThiruVenkatam",
      "displayName": "ThiruVenkatam",
      "missingFields": [
        "perumal",
        "thaayaar",
        "locality"
      ],
      "currentData": {
        "perumal": "Unknown",
        "thaayaar": null,
        "district": "Tirupati district",
        "locality": "",
        "wikidata_qid": "Q9375937",
        "coordinates": "13.6833, 79.35"
      }
    },
    {
      "index": 350,
      "name": "ThiruVilliputhur",
      "displayName": "ThiruVilliputhur",
      "missingFields": [
        "perumal",
        "thaayaar",
        "locality"
      ],
      "currentData": {
        "perumal": "Unknown",
        "thaayaar": null,
        "district": "Tamil Nadu",
        "locality": "",
        "wikidata_qid": "Q2562483",
        "coordinates": "9.512, 77.6337"
      }
    },
    {
      "index": 351,
      "name": "ThiruVinnagar",
      "displayName": "ThiruVinnagar",
      "missingFields": [
        "perumal",
        "thaayaar",
        "wikidata_qid",
        "locality"
      ],
      "currentData": {
        "perumal": "Unknown",
        "thaayaar": null,
        "district": "Tamil Nadu",
        "locality": "",
        "wikidata_qid": null,
        "coordinates": "10.961564, 79.431592"
      }
    },
    {
      "index": 352,
      "name": "ThiruViththuvakkodu",
      "displayName": "ThiruViththuvakkodu",
      "missingFields": [
        "perumal",
        "thaayaar",
        "wikidata_qid",
        "locality"
      ],
      "currentData": {
        "perumal": "Unknown",
        "thaayaar": null,
        "district": "Tamil Nadu",
        "locality": "",
        "wikidata_qid": null,
        "coordinates": "9.2833, 76.5667"
      }
    },
    {
      "index": 353,
      "name": "Thyagarajaswamy Temple, Thiruvarur",
      "displayName": "Thyagarajaswamy Temple, Thiruvarur",
      "missingFields": [
        "perumal",
        "thaayaar",
        "wikidata_qid"
      ],
      "currentData": {
        "perumal": "Unknown",
        "thaayaar": null,
        "district": "Thiruvarur",
        "locality": "Thiruvarur",
        "wikidata_qid": null,
        "coordinates": "10.7725, 79.6358"
      }
    },
    {
      "index": 354,
      "name": "Uchisthar Temple",
      "displayName": "Uchisthar Temple",
      "missingFields": [
        "perumal",
        "thaayaar",
        "wikidata_qid"
      ],
      "currentData": {
        "perumal": "Unknown",
        "thaayaar": null,
        "district": "Thiruvarur",
        "locality": "Manjakollai",
        "wikidata_qid": null,
        "coordinates": "10.51, 79.73"
      }
    },
    {
      "index": 355,
      "name": "Uchisthar Temple, Ooratchi",
      "displayName": "Uchisthar Temple, Ooratchi",
      "missingFields": [
        "perumal",
        "thaayaar",
        "wikidata_qid"
      ],
      "currentData": {
        "perumal": "Unknown",
        "thaayaar": null,
        "district": "Thiruvarur",
        "locality": "Manjakollai",
        "wikidata_qid": null,
        "coordinates": "10.51, 79.73"
      }
    },
    {
      "index": 356,
      "name": "Udupi Sri Krishna Matha",
      "displayName": "Udupi Sri Krishna Matha",
      "missingFields": [
        "perumal",
        "thaayaar"
      ],
      "currentData": {
        "perumal": "Unknown",
        "thaayaar": null,
        "district": "Udupi",
        "locality": "Udupi",
        "wikidata_qid": "Q2044395",
        "coordinates": "13.341389, 74.746111"
      }
    },
    {
      "index": 357,
      "name": "Ukthavedeeswarar Temple",
      "displayName": "Ukthavedeeswarar Temple",
      "missingFields": [
        "thaayaar",
        "wikidata_qid"
      ],
      "currentData": {
        "perumal": "Ukthavedeeswarar",
        "thaayaar": null,
        "district": "Cuddalore",
        "locality": "Sivapuri",
        "wikidata_qid": null,
        "coordinates": "11.3934, 79.7225"
      }
    },
    {
      "index": 358,
      "name": "Ulagalantha Perumal Temple",
      "displayName": "Ulagalantha Perumal Temple",
      "missingFields": [
        "perumal",
        "thaayaar",
        "wikidata_qid"
      ],
      "currentData": {
        "perumal": "Unknown",
        "thaayaar": null,
        "district": "Kanchipuram",
        "locality": "Kanchipuram",
        "wikidata_qid": null,
        "coordinates": "12.83917, 79.705"
      }
    },
    {
      "index": 359,
      "name": "Ulagalantha Perumal Temple, Kanchipuram",
      "displayName": "Ulagalantha Perumal Temple, Kanchipuram",
      "missingFields": [
        "perumal",
        "thaayaar",
        "wikidata_qid"
      ],
      "currentData": {
        "perumal": "Unknown",
        "thaayaar": null,
        "district": "Kanchipuram",
        "locality": "Kanchipuram",
        "wikidata_qid": null,
        "coordinates": "12.83917, 79.705"
      }
    },
    {
      "index": 360,
      "name": "Uthavedeeswarar Temple, Kuthalam",
      "displayName": "Uthavedeeswarar Temple, Kuthalam",
      "missingFields": [
        "perumal",
        "thaayaar",
        "wikidata_qid"
      ],
      "currentData": {
        "perumal": "Unknown",
        "thaayaar": null,
        "district": "Mayiladuthurai",
        "locality": "Kuthalam",
        "wikidata_qid": null,
        "coordinates": "11.08, 79.55"
      }
    },
    {
      "index": 361,
      "name": "Uthirapatheeswarar Temple, Thiruchenkattankudi",
      "displayName": "Uthirapatheeswarar Temple, Thiruchenkattankudi",
      "missingFields": [
        "thaayaar",
        "wikidata_qid"
      ],
      "currentData": {
        "perumal": "Uthirapatheeswarar, Uthirapatheeswari",
        "thaayaar": null,
        "district": "Nagapattinam",
        "locality": "Thiruchengattankudi",
        "wikidata_qid": null,
        "coordinates": "10.85, 79.7"
      }
    },
    {
      "index": 362,
      "name": "Uthirapatheeswarar Temple, Thirukalambur",
      "displayName": "Uthirapatheeswarar Temple, Thirukalambur",
      "missingFields": [
        "perumal",
        "thaayaar",
        "wikidata_qid"
      ],
      "currentData": {
        "perumal": "Unknown",
        "thaayaar": null,
        "district": "Tiruchirappalli",
        "locality": "Uyyakondan Thirumalai",
        "wikidata_qid": null,
        "coordinates": "10.793, 78.649"
      }
    },
    {
      "index": 363,
      "name": "Uyyakondan Temple, Thirumanancheri",
      "displayName": "Uyyakondan Temple, Thirumanancheri",
      "missingFields": [
        "perumal",
        "thaayaar",
        "wikidata_qid"
      ],
      "currentData": {
        "perumal": "Unknown",
        "thaayaar": null,
        "district": "Mayiladuthurai",
        "locality": "Thirumanancheri",
        "wikidata_qid": null,
        "coordinates": "11.107, 79.516"
      }
    },
    {
      "index": 364,
      "name": "Vaaleeswarar Temple, Kuranganilmuttam",
      "displayName": "Vaaleeswarar Temple, Kuranganilmuttam",
      "missingFields": [
        "perumal",
        "thaayaar",
        "wikidata_qid"
      ],
      "currentData": {
        "perumal": "Unknown",
        "thaayaar": null,
        "district": "Kanchipuram",
        "locality": "Kuranganilmuttam",
        "wikidata_qid": null,
        "coordinates": "12.75, 79.72"
      }
    },
    {
      "index": 365,
      "name": "Vada Aranyeswarar Temple, Thiruvalangadu",
      "displayName": "Vada Aranyeswarar Temple, Thiruvalangadu",
      "missingFields": [
        "perumal",
        "thaayaar",
        "wikidata_qid"
      ],
      "currentData": {
        "perumal": "Unknown",
        "thaayaar": null,
        "district": "Tiruvallur",
        "locality": "Thiruvalangadu",
        "wikidata_qid": null,
        "coordinates": "13.13, 79.77"
      }
    },
    {
      "index": 366,
      "name": "Vadamoolanathar Temple, Alanthurai",
      "displayName": "Vadamoolanathar Temple, Alanthurai",
      "missingFields": [
        "perumal",
        "thaayaar",
        "wikidata_qid"
      ],
      "currentData": {
        "perumal": "Unknown",
        "thaayaar": null,
        "district": "Thanjavur",
        "locality": "Thiruvalanchuzhi",
        "wikidata_qid": null,
        "coordinates": "10.95, 79.3"
      }
    },
    {
      "index": 367,
      "name": "Vadamoolanathar Temple, Ozhukarai",
      "displayName": "Vadamoolanathar Temple, Ozhukarai",
      "missingFields": [
        "perumal",
        "thaayaar",
        "wikidata_qid"
      ],
      "currentData": {
        "perumal": "Unknown",
        "thaayaar": null,
        "district": "Viluppuram",
        "locality": "Thiruvakkarai",
        "wikidata_qid": null,
        "coordinates": "12.02, 79.5"
      }
    },
    {
      "index": 368,
      "name": "Vaidhyanathar Temple, Thiru Valampuram",
      "displayName": "Vaidhyanathar Temple, Thiru Valampuram",
      "missingFields": [
        "perumal",
        "thaayaar",
        "wikidata_qid"
      ],
      "currentData": {
        "perumal": "Unknown",
        "thaayaar": null,
        "district": "Mayiladuthurai",
        "locality": "Valampuram",
        "wikidata_qid": null,
        "coordinates": "11.206, 79.805"
      }
    },
    {
      "index": 369,
      "name": "Vaikal Nathar Temple, Thiruvaikal",
      "displayName": "Vaikal Nathar Temple, Thiruvaikal",
      "missingFields": [
        "perumal",
        "thaayaar",
        "wikidata_qid"
      ],
      "currentData": {
        "perumal": "Unknown",
        "thaayaar": null,
        "district": "Thiruvarur",
        "locality": "Thiruvaikal",
        "wikidata_qid": null,
        "coordinates": "10.88, 79.52"
      }
    },
    {
      "index": 370,
      "name": "Vaimur Nathar Temple, Thiru Vaimur",
      "displayName": "Vaimur Nathar Temple, Thiru Vaimur",
      "missingFields": [
        "perumal",
        "thaayaar",
        "wikidata_qid"
      ],
      "currentData": {
        "perumal": "Unknown",
        "thaayaar": null,
        "district": "Thiruvarur",
        "locality": "Thiruvaimur",
        "wikidata_qid": null,
        "coordinates": "10.669, 79.791"
      }
    },
    {
      "index": 371,
      "name": "Valainallurappar Temple",
      "displayName": "Valainallurappar Temple",
      "missingFields": [
        "perumal",
        "thaayaar",
        "wikidata_qid"
      ],
      "currentData": {
        "perumal": "Unknown",
        "thaayaar": null,
        "district": "Tiruvannamalai",
        "locality": "Valainallur",
        "wikidata_qid": null,
        "coordinates": "12.23, 79.06"
      }
    },
    {
      "index": 372,
      "name": "Valithayeswarar Temple, Padi",
      "displayName": "Valithayeswarar Temple, Padi",
      "missingFields": [
        "perumal",
        "thaayaar",
        "wikidata_qid"
      ],
      "currentData": {
        "perumal": "Unknown",
        "thaayaar": null,
        "district": "Chennai",
        "locality": "Padi",
        "wikidata_qid": null,
        "coordinates": "13.097, 80.189"
      }
    },
    {
      "index": 373,
      "name": "Vanchinadhaswamy Temple",
      "displayName": "Vanchinadhaswamy Temple",
      "missingFields": [
        "perumal",
        "thaayaar",
        "wikidata_qid"
      ],
      "currentData": {
        "perumal": "Unknown",
        "thaayaar": null,
        "district": "Thiruvarur",
        "locality": "Srivanchiyam",
        "wikidata_qid": null,
        "coordinates": "10.9023, 79.5369"
      }
    },
    {
      "index": 374,
      "name": "Vanchinadhaswamy Temple, Srivanjiyam",
      "displayName": "Vanchinadhaswamy Temple, Srivanjiyam",
      "missingFields": [
        "thaayaar",
        "wikidata_qid"
      ],
      "currentData": {
        "perumal": "Vanchinadhaswamy",
        "thaayaar": null,
        "district": "Thiruvarur",
        "locality": "Srivanjiyam",
        "wikidata_qid": null,
        "coordinates": "10.7836, 79.8444"
      }
    },
    {
      "index": 375,
      "name": "Vardhamaneswaram Temple, Thirupugalur",
      "displayName": "Vardhamaneswaram Temple, Thirupugalur",
      "missingFields": [
        "perumal",
        "thaayaar",
        "wikidata_qid"
      ],
      "currentData": {
        "perumal": "Unknown",
        "thaayaar": null,
        "district": "Nagapattinam",
        "locality": "Thirupugalur",
        "wikidata_qid": null,
        "coordinates": "10.865, 79.684"
      }
    },
    {
      "index": 376,
      "name": "Vasishteswarar Temple, Thittai",
      "displayName": "Vasishteswarar Temple, Thittai",
      "missingFields": [
        "perumal",
        "thaayaar",
        "wikidata_qid"
      ],
      "currentData": {
        "perumal": "Unknown",
        "thaayaar": null,
        "district": "Thanjavur",
        "locality": "Thittai",
        "wikidata_qid": null,
        "coordinates": "10.852, 79.083"
      }
    },
    {
      "index": 377,
      "name": "Vedagiriswarar Temple, Thirukazhukundram",
      "displayName": "Vedagiriswarar Temple, Thirukazhukundram",
      "missingFields": [
        "perumal",
        "thaayaar",
        "wikidata_qid"
      ],
      "currentData": {
        "perumal": "Unknown",
        "thaayaar": null,
        "district": "Chengalpattu",
        "locality": "Thirukazhukundram",
        "wikidata_qid": null,
        "coordinates": "12.6, 80.05"
      }
    },
    {
      "index": 378,
      "name": "Vedapureeswarar Temple, Thiruvedhikudi",
      "displayName": "Vedapureeswarar Temple, Thiruvedhikudi",
      "missingFields": [
        "perumal",
        "thaayaar",
        "wikidata_qid"
      ],
      "currentData": {
        "perumal": "Unknown",
        "thaayaar": null,
        "district": "Thanjavur",
        "locality": "Thiruvedhikudi",
        "wikidata_qid": null,
        "coordinates": "10.903, 79.081"
      }
    },
    {
      "index": 379,
      "name": "Vedaranyeswarar Temple, Vedaranyam",
      "displayName": "Vedaranyeswarar Temple, Vedaranyam",
      "missingFields": [
        "perumal",
        "thaayaar",
        "wikidata_qid"
      ],
      "currentData": {
        "perumal": "Unknown",
        "thaayaar": null,
        "district": "Nagapattinam",
        "locality": "Vedaranyam",
        "wikidata_qid": null,
        "coordinates": "10.372, 79.851"
      }
    },
    {
      "index": 380,
      "name": "Vedeswarar Temple, Thiru Bothur",
      "displayName": "Vedeswarar Temple, Thiru Bothur",
      "missingFields": [
        "perumal",
        "thaayaar",
        "wikidata_qid"
      ],
      "currentData": {
        "perumal": "Unknown",
        "thaayaar": null,
        "district": "Tiruvallur",
        "locality": "Vellavedu",
        "wikidata_qid": null,
        "coordinates": "13.1, 80.03"
      }
    },
    {
      "index": 381,
      "name": "Veeranarayana Perumal",
      "displayName": "Veeranarayana Perumal",
      "missingFields": [
        "perumal",
        "thaayaar",
        "district",
        "wikidata_qid"
      ],
      "currentData": {
        "perumal": "Unknown",
        "thaayaar": null,
        "district": null,
        "locality": "Kattumannarkoil (near Chidambaram)",
        "wikidata_qid": null,
        "coordinates": "11.2773283, 79.5493054"
      }
    },
    {
      "index": 382,
      "name": "Veerattaneswarar Temple, Thiruvathigai",
      "displayName": "Veerattaneswarar Temple, Thiruvathigai",
      "missingFields": [
        "perumal",
        "thaayaar",
        "wikidata_qid"
      ],
      "currentData": {
        "perumal": "Unknown",
        "thaayaar": null,
        "district": "Cuddalore",
        "locality": "Thiruvathigai",
        "wikidata_qid": null,
        "coordinates": "11.83, 79.57"
      }
    },
    {
      "index": 383,
      "name": "Veeratteswarar Temple, Kurukkai",
      "displayName": "Veeratteswarar Temple, Kurukkai",
      "missingFields": [
        "perumal",
        "thaayaar",
        "wikidata_qid"
      ],
      "currentData": {
        "perumal": "Unknown",
        "thaayaar": null,
        "district": "Mayiladuthurai",
        "locality": "Korukkai",
        "wikidata_qid": null,
        "coordinates": "11.155, 79.62"
      }
    },
    {
      "index": 384,
      "name": "Veeratteswarar Temple, Thirukandiyur",
      "displayName": "Veeratteswarar Temple, Thirukandiyur",
      "missingFields": [
        "perumal",
        "thaayaar",
        "wikidata_qid"
      ],
      "currentData": {
        "perumal": "Unknown",
        "thaayaar": null,
        "district": "Thanjavur",
        "locality": "Thirukandiyur",
        "wikidata_qid": null,
        "coordinates": "10.862, 79.083"
      }
    },
    {
      "index": 385,
      "name": "Veeratteswarar Temple, Thirukkovilur",
      "displayName": "Veeratteswarar Temple, Thirukkovilur",
      "missingFields": [
        "perumal",
        "thaayaar",
        "wikidata_qid"
      ],
      "currentData": {
        "perumal": "Unknown",
        "thaayaar": null,
        "district": "Viluppuram",
        "locality": "Thirukoilure",
        "wikidata_qid": null,
        "coordinates": "11.97, 79.2"
      }
    },
    {
      "index": 386,
      "name": "Vellimalainathar Temple, Thengur",
      "displayName": "Vellimalainathar Temple, Thengur",
      "missingFields": [
        "perumal",
        "thaayaar",
        "wikidata_qid"
      ],
      "currentData": {
        "perumal": "Unknown",
        "thaayaar": null,
        "district": "Thiruvarur",
        "locality": "Thenkur",
        "wikidata_qid": null,
        "coordinates": "10.65, 79.63"
      }
    },
    {
      "index": 387,
      "name": "Venniyurappar Temple, Kovilvenni",
      "displayName": "Venniyurappar Temple, Kovilvenni",
      "missingFields": [
        "perumal",
        "thaayaar",
        "wikidata_qid"
      ],
      "currentData": {
        "perumal": "Unknown",
        "thaayaar": null,
        "district": "Thiruvarur",
        "locality": "Koilvenni",
        "wikidata_qid": null,
        "coordinates": "10.75, 79.43"
      }
    },
    {
      "index": 388,
      "name": "Vijayanatheswarar Temple, Thiruvisayamangai",
      "displayName": "Vijayanatheswarar Temple, Thiruvisayamangai",
      "missingFields": [
        "perumal",
        "thaayaar",
        "wikidata_qid"
      ],
      "currentData": {
        "perumal": "Unknown",
        "thaayaar": null,
        "district": "Thanjavur",
        "locality": "Kovilacheri",
        "wikidata_qid": null,
        "coordinates": "11, 79.38"
      }
    },
    {
      "index": 389,
      "name": "Vikirthanatheswarar Temple, Venjamangudalur",
      "displayName": "Vikirthanatheswarar Temple, Venjamangudalur",
      "missingFields": [
        "perumal",
        "thaayaar",
        "wikidata_qid"
      ],
      "currentData": {
        "perumal": "Unknown",
        "thaayaar": null,
        "district": "Tiruppur",
        "locality": "Vellakoil",
        "wikidata_qid": null,
        "coordinates": "10.93, 77.72"
      }
    },
    {
      "index": 390,
      "name": "Vilvanathar Temple, Thiru Vilamar",
      "displayName": "Vilvanathar Temple, Thiru Vilamar",
      "missingFields": [
        "perumal",
        "thaayaar",
        "wikidata_qid"
      ],
      "currentData": {
        "perumal": "Unknown",
        "thaayaar": null,
        "district": "Thiruvarur",
        "locality": "Vilamal",
        "wikidata_qid": null,
        "coordinates": "10.755, 79.626"
      }
    },
    {
      "index": 391,
      "name": "Vilvavaneswarar Temple, Kollambudur",
      "displayName": "Vilvavaneswarar Temple, Kollambudur",
      "missingFields": [
        "perumal",
        "thaayaar",
        "wikidata_qid"
      ],
      "currentData": {
        "perumal": "Unknown",
        "thaayaar": null,
        "district": "Thiruvarur",
        "locality": "Kollambudur",
        "wikidata_qid": null,
        "coordinates": "10.875, 79.483"
      }
    },
    {
      "index": 392,
      "name": "Vilvavaneswarar Temple, Thirukollampudur",
      "displayName": "Vilvavaneswarar Temple, Thirukollampudur",
      "missingFields": [
        "perumal",
        "thaayaar",
        "wikidata_qid"
      ],
      "currentData": {
        "perumal": "Unknown",
        "thaayaar": null,
        "district": "Thiruvarur",
        "locality": "Thirukollampudur",
        "wikidata_qid": null,
        "coordinates": "10.875, 79.483"
      }
    },
    {
      "index": 393,
      "name": "Viralmeendarappar Temple",
      "displayName": "Viralmeendarappar Temple",
      "missingFields": [
        "perumal",
        "thaayaar",
        "wikidata_qid"
      ],
      "currentData": {
        "perumal": "Unknown",
        "thaayaar": null,
        "district": "Pudukkottai",
        "locality": "Viralimalai",
        "wikidata_qid": null,
        "coordinates": "10.609, 78.498"
      }
    },
    {
      "index": 394,
      "name": "Virkooteswarar Temple, Virkootam",
      "displayName": "Virkooteswarar Temple, Virkootam",
      "missingFields": [
        "perumal",
        "thaayaar",
        "wikidata_qid"
      ],
      "currentData": {
        "perumal": "Unknown",
        "thaayaar": null,
        "district": "Tiruvallur",
        "locality": "Kuvam",
        "wikidata_qid": null,
        "coordinates": "13.05, 79.83"
      }
    },
    {
      "index": 395,
      "name": "Vishnuprayag",
      "displayName": "Vishnuprayag",
      "missingFields": [
        "perumal",
        "thaayaar"
      ],
      "currentData": {
        "perumal": "Unknown",
        "thaayaar": null,
        "district": "India",
        "locality": "Vishnuprayag (Badrinath region)",
        "wikidata_qid": "Q2773350",
        "coordinates": "30.5626444, 79.5791482"
      }
    },
    {
      "index": 396,
      "name": "Viswanathar Temple, Saathangudi",
      "displayName": "Viswanathar Temple, Saathangudi",
      "missingFields": [
        "perumal",
        "thaayaar",
        "wikidata_qid"
      ],
      "currentData": {
        "perumal": "Unknown",
        "thaayaar": null,
        "district": "Thanjavur",
        "locality": "Thiruchattimutram",
        "wikidata_qid": null,
        "coordinates": "10.94, 79.28"
      }
    },
    {
      "index": 397,
      "name": "Vruddhagireeswarar Temple, Vriddhachalam",
      "displayName": "Vruddhagireeswarar Temple, Vriddhachalam",
      "missingFields": [
        "perumal",
        "thaayaar",
        "wikidata_qid"
      ],
      "currentData": {
        "perumal": "Unknown",
        "thaayaar": null,
        "district": "Cuddalore",
        "locality": "Vriddhachalam",
        "wikidata_qid": null,
        "coordinates": "11.5126, 79.3338"
      }
    },
    {
      "index": 398,
      "name": "Vruddhapureeswarar Temple, Thiruppunavasal",
      "displayName": "Vruddhapureeswarar Temple, Thiruppunavasal",
      "missingFields": [
        "perumal",
        "thaayaar",
        "wikidata_qid"
      ],
      "currentData": {
        "perumal": "Unknown",
        "thaayaar": null,
        "district": "Pudukkottai",
        "locality": "Thiruppunavasal",
        "wikidata_qid": null,
        "coordinates": "9.9316, 79.1362"
      }
    },
    {
      "index": 399,
      "name": "Vyagrapureeswarar Temple, Thiruvaikavur",
      "displayName": "Vyagrapureeswarar Temple, Thiruvaikavur",
      "missingFields": [
        "perumal",
        "thaayaar",
        "wikidata_qid"
      ],
      "currentData": {
        "perumal": "Unknown",
        "thaayaar": null,
        "district": "Thanjavur",
        "locality": "Thiruvaikavur",
        "wikidata_qid": null,
        "coordinates": "11.02, 79.37"
      }
    },
    {
      "index": 400,
      "name": "Vyakrapureeswarar Temple, Perumpuliyur",
      "displayName": "Vyakrapureeswarar Temple, Perumpuliyur",
      "missingFields": [
        "perumal",
        "thaayaar",
        "wikidata_qid"
      ],
      "currentData": {
        "perumal": "Unknown",
        "thaayaar": null,
        "district": "Thanjavur",
        "locality": "Perumpuliyur",
        "wikidata_qid": null,
        "coordinates": "10.867, 79.042"
      }
    },
    {
      "index": 401,
      "name": "Yoga Narasimha Perumal Temple",
      "displayName": "Yoga Narasimha Perumal Temple",
      "missingFields": [
        "perumal",
        "thaayaar",
        "wikidata_qid"
      ],
      "currentData": {
        "perumal": "Unknown",
        "thaayaar": null,
        "district": "Madurai",
        "locality": "Narasingam",
        "wikidata_qid": null,
        "coordinates": "9.988, 78.204"
      }
    }
  ],
  "summary": {
    "missingPerumal": 387,
    "missingThaayaar": 401,
    "missingDistrict": 66,
    "missingWikidata": 318,
    "missingLocality": 111,
    "invalidCoordinates": 2
  }
}