[
  {
    "name": "Vilvanathar Temple, Thiru Vilamar",
    "alt_names": [],
    "locality": "Vilamal",
    "district": "Thiruvarur",
    "state": "Tamil Nadu",
    "lat": 10.755,
    "lng": 79.626
  },
  {
    "name": "Karaveereswarar Temple, Karaveeram",
    "alt_names": [],
    "locality": "Karaviram",
    "district": "Thiruvarur",
    "state": "Tamil Nadu",
    "lat": 10.71,
    "lng": 79.67
  },
  {
    "name": "Abhimuktheeswarar Temple, Peruvelur",
    "alt_names": [
      "Thiruperuvelur"
    ],
    "locality": "Manakkal Ayyampettai",
    "district": "Thiruvarur",
    "state": "Tamil Nadu",
    "lat": 10.78,
    "lng": 79.52
  },
  {
    "name": "Narthana Vallabeswarar Temple, Thalaiyalangadu",
    "alt_names": [],
    "locality": "Thalaiyalangadu",
    "district": "Thiruvarur",
    "state": "Tamil Nadu",
    "lat": 10.92,
    "lng": 79.63
  },
  {
    "name": "Swarnapureeswarar Temple, Andankoil",
    "alt_names": [
      "Thirukaduvaikkarai Puthur"
    ],
    "locality": "Andan Koil",
    "district": "Thiruvarur",
    "state": "Tamil Nadu",
    "lat": 10.66,
    "lng": 79.6
  },
  {
    "name": "Venniyurappar Temple, Kovilvenni",
    "alt_names": [],
    "locality": "Koilvenni",
    "district": "Thiruvarur",
    "state": "Tamil Nadu",
    "lat": 10.75,
    "lng": 79.43
  },
  {
    "name": "Agnipureeswarar Temple, Thirupugalur",
    "alt_names": [],
    "locality": "Thirupugalur",
    "district": "Nagapattinam",
    "state": "Tamil Nadu",
    "lat": 10.865,
    "lng": 79.684
  },
  {
    "name": "Ramanathaswamy Temple, Thiruramanathapuram",
    "alt_names": [],
    "locality": "Thirurameswaram",
    "district": "Thiruvarur",
    "state": "Tamil Nadu",
    "lat": 10.88,
    "lng": 79.61
  },
  {
    "name": "Payatrunathar Temple, Thirupayathur",
    "alt_names": [],
    "locality": "Thirupayathangudi",
    "district": "Thiruvarur",
    "state": "Tamil Nadu",
    "lat": 10.84,
    "lng": 79.6
  },
  {
    "name": "Uthirapatheeswarar Temple, Thiruchenkattankudi",
    "alt_names": [],
    "locality": "Thiruchengattankudi",
    "district": "Nagapattinam",
    "state": "Tamil Nadu",
    "lat": 10.85,
    "lng": 79.7
  },
  {
    "name": "Madhuvaneswarar Temple, Nannilam",
    "alt_names": [],
    "locality": "Nannilam",
    "district": "Thiruvarur",
    "state": "Tamil Nadu",
    "lat": 10.9,
    "lng": 79.62
  },
  {
    "name": "Vanchinadhaswamy Temple, Srivanjiyam",
    "alt_names": [],
    "locality": "Srivanjiyam",
    "district": "Thiruvarur",
    "state": "Tamil Nadu",
    "lat": 10.9,
    "lng": 79.53
  },
  {
    "name": "Siddhanatheswarar Temple, Naraiyur",
    "alt_names": [
      "Thirunaraiyur"
    ],
    "locality": "Thirunaraiyur",
    "district": "Thiruvarur",
    "state": "Tamil Nadu",
    "lat": 10.85,
    "lng": 79.5
  },
  {
    "name": "Padikkasunathar Temple, Azhagaputhur",
    "alt_names": [
      "Thiru Arisirkaraiputhur"
    ],
    "locality": "Azhagaputhur",
    "district": "Thanjavur",
    "state": "Tamil Nadu",
    "lat": 10.98,
    "lng": 79.43
  },
  {
    "name": "Sivagurunathaswamy Temple, Sivapuram",
    "alt_names": [],
    "locality": "Sivapuram",
    "district": "Thanjavur",
    "state": "Tamil Nadu",
    "lat": 10.93,
    "lng": 79.35
  },
  {
    "name": "Sarguneswarar Temple, Karukkudi",
    "alt_names": [],
    "locality": "Thirukarukudi",
    "district": "Thanjavur",
    "state": "Tamil Nadu",
    "lat": 10.95,
    "lng": 79.3
  },
  {
    "name": "Ramanathaswamy Temple, Thirukannapuram",
    "alt_names": [],
    "locality": "Thirukannapuram",
    "district": "Thiruvarur",
    "state": "Tamil Nadu",
    "lat": 10.87,
    "lng": 79.7
  },
  {
    "name": "Nallam Nathar Temple, Konerirajapuram",
    "alt_names": [
      "Thirunallam"
    ],
    "locality": "Konerirajapuram",
    "district": "Mayiladuthurai",
    "state": "Tamil Nadu",
    "lat": 10.97,
    "lng": 79.53
  },
  {
    "name": "Agneeswarar Temple, Thirukollikadu",
    "alt_names": [],
    "locality": "Thirukollikadu",
    "district": "Thiruvarur",
    "state": "Tamil Nadu",
    "lat": 10.63,
    "lng": 79.58
  },
  {
    "name": "Vellimalainathar Temple, Thengur",
    "alt_names": [],
    "locality": "Thenkur",
    "district": "Thiruvarur",
    "state": "Tamil Nadu",
    "lat": 10.65,
    "lng": 79.63
  },
  {
    "name": "Kodeeswarar Temple, Kottaiyur",
    "alt_names": [],
    "locality": "Kottaiyur",
    "district": "Sivaganga",
    "state": "Tamil Nadu",
    "lat": 10.08,
    "lng": 78.8
  },
  {
    "name": "Nethrapureeswarar Temple, Irumpoolai",
    "alt_names": [],
    "locality": "Keelaperumpallam",
    "district": "Mayiladuthurai",
    "state": "Tamil Nadu",
    "lat": 11.17,
    "lng": 79.84
  },
  {
    "name": "Brahmapureeswarar Temple, Ambar",
    "alt_names": [],
    "locality": "Ambal",
    "district": "Mayiladuthurai",
    "state": "Tamil Nadu",
    "lat": 11.02,
    "lng": 79.73
  },
  {
    "name": "Mahakalanathar Temple, Ambar",
    "alt_names": [
      "Thiru Ambar Makalam"
    ],
    "locality": "Thirumahalam",
    "district": "Mayiladuthurai",
    "state": "Tamil Nadu",
    "lat": 11.01,
    "lng": 79.74
  },
  {
    "name": "Sakalabhuvaneswarar Temple, Meeyachur",
    "alt_names": [
      "Thiru Meeyachur Ilamkovil"
    ],
    "locality": "Peralam",
    "district": "Thiruvarur",
    "state": "Tamil Nadu",
    "lat": 10.95,
    "lng": 79.68
  },
  {
    "name": "Meganathaswamy Temple, Meeyachur",
    "alt_names": [
      "Thiru Meeyachur"
    ],
    "locality": "Peralam",
    "district": "Thiruvarur",
    "state": "Tamil Nadu",
    "lat": 10.95,
    "lng": 79.68
  },
  {
    "name": "Muktheeswarar Temple, Thilathaipathi",
    "alt_names": [],
    "locality": "Sethalapathy",
    "district": "Thiruvarur",
    "state": "Tamil Nadu",
    "lat": 10.87,
    "lng": 79.73
  },
  {
    "name": "Paampuranathar Temple, Thirupampuram",
    "alt_names": [],
    "locality": "Thirupampuram",
    "district": "Thiruvarur",
    "state": "Tamil Nadu",
    "lat": 10.93,
    "lng": 79.65
  },
  {
    "name": "Mangalanathaswamy Temple, Sirukudi",
    "alt_names": [],
    "locality": "Sirukudi",
    "district": "Thiruvarur",
    "state": "Tamil Nadu",
    "lat": 10.88,
    "lng": 79.48
  },
  {
    "name": "Neelakandeswarar Temple, Thandalaineelnari",
    "alt_names": [],
    "locality": "Thandalacheri",
    "district": "Thiruvarur",
    "state": "Tamil Nadu",
    "lat": 10.85,
    "lng": 79.75
  }
]