[
  {
    "name": "Uchisthar Temple",
    "alt_names": [],
    "locality": "Manjakollai",
    "district": "Thiruvarur",
    "state": "Tamil Nadu",
    "lat": 10.51,
    "lng": 79.73
  },
  {
    "name": "Somanathar Temple, Palaiyarai Vadathali",
    "alt_names": ["Thiru Palaiyarai Vadathali Somanathar Temple"],
    "locality": "Pazhayarai",
    "district": "Thanjavur",
    "state": "Tamil Nadu",
    "lat": 10.93,
    "lng": 79.33
  },
  {
    "name": "Chakravageswarar Temple",
    "alt_names": ["Chakramangai", "Thiru Sakkarappalli Chakravageswarar Temple"],
    "locality": "Chakkarapalli",
    "district": "Thanjavur",
    "state": "Tamil Nadu",
    "lat": 10.9007,
    "lng": 79.1968
  },
  {
    "name": "Maatruraivaradeeswarar Temple",
    "alt_names": ["Thiru Paithurai Maatruraivaradeeswarar Temple"],
    "locality": "Thiruppaithurai",
    "district": "Tiruchirappalli",
    "state": "Tamil Nadu",
    "lat": 10.834,
    "lng": 78.588
  },
  {
    "name": "Thiru Kallil Sivan Temple",
    "alt_names": [],
    "locality": null,
    "district": null,
    "state": "Tamil Nadu",
    "lat": null,
    "lng": null
  },
  {
    "name": "Thiru Madhavimangalam Madhava Perumal Temple",
    "alt_names": [],
    "locality": null,
    "district": null,
    "state": "Tamil Nadu",
    "lat": null,
    "lng": null
  },
  {
    "name": "Theeyaadiyaappar Temple",
    "alt_names": ["Thiru Kattupalli Theeyaadiyaappar Temple"],
    "locality": "Keezh Tiru Kattupalli",
    "district": "Mayiladuthurai",
    "state": "Tamil Nadu",
    "lat": 11.171,
    "lng": 79.834
  },
  {
    "name": "Vadamoolanathar Temple, Ozhukarai",
    "alt_names": ["Thiru Ozhukarai Vadamoolanathar Temple"],
    "locality": "Thiruvakkarai",
    "district": "Viluppuram",
    "state": "Tamil Nadu",
    "lat": 12.02,
    "lng": 79.5
  },
  {
    "name": "Kanneswarar Temple, Thirukurakkaval",
    "alt_names": ["Thiru Kurakkaval Kanneswarar Temple"],
    "locality": "Thirukurakkaval",
    "district": "Mayiladuthurai",
    "state": "Tamil Nadu",
    "lat": 11.155,
    "lng": 79.62
  },
  {
    "name": "Thiru Oomathnadu Omkareswarar Temple",
    "alt_names": [],
    "locality": null,
    "district": null,
    "state": "Tamil Nadu",
    "lat": null,
    "lng": null
  },
  {
    "name": "Kanneeswarar Temple, Thiruvalapoor",
    "alt_names": ["Thiru Valappur Kanneeswarar Temple"],
    "locality": "Thiruvalapoor",
    "district": "Cuddalore",
    "state": "Tamil Nadu",
    "lat": 11.660143,
    "lng": 79.352467
  },
  {
    "name": "Manapureeswarar Temple, Manappalli",
    "alt_names": ["Thiru Manappalli Thiru Manapureeswarar Temple"],
    "locality": "Manappalli",
    "district": "Thiruvarur",
    "state": "Tamil Nadu",
    "lat": 10.7495,
    "lng": 79.6200
  },
  {
    "name": "Ulagalantha Perumal Temple",
    "alt_names": ["Thiru Vinnagar Ulagalantha Perumal Temple"],
    "locality": "Kanchipuram",
    "district": "Kanchipuram",
    "state": "Tamil Nadu",
    "lat": 12.83917,
    "lng": 79.70500
  },
  {
    "name": "Marutheeswarar Temple, Maruthampudur",
    "alt_names": ["Thiru Maruthampudur Marutheeswarar Temple"],
    "locality": "Maruthampudur",
    "district": "Thiruvarur",
    "state": "Tamil Nadu",
    "lat": 10.46,
    "lng": 79.62
  },
  {
    "name": "Aavai Nathar Temple",
    "alt_names": ["Thiru Aavai Aavai Nathar Temple", "Sundareswarar Temple, Madurai"],
    "locality": "Madurai",
    "district": "Madurai",
    "state": "Tamil Nadu",
    "lat": 9.9208,
    "lng": 78.1197
  },
  {
    "name": "Kannayiramudaiyar Temple",
    "alt_names": ["Thiru Kannaar Kovil Kannayiramudaiyar Temple"],
    "locality": "Thirukkanapuram",
    "district": "Thiruvarur",
    "state": "Tamil Nadu",
    "lat": 10.8703,
    "lng": 79.7042
  },
  {
    "name": "Aamaiyurappar Temple",
    "alt_names": ["Thiru Aamaiyur Aamaiyurappar Temple"],
    "locality": "Aamaiyur",
    "district": "Viluppuram",
    "state": "Tamil Nadu",
    "lat": 11.882,
    "lng": 79.404
  },
  {
    "name": "Muthiyanchurappar Temple",
    "alt_names": ["Thiru Muthiyanchur Muthiyanchurappar Temple"],
    "locality": "Muthiyanchur",
    "district": "Kallakurichi",
    "state": "Tamil Nadu",
    "lat": 11.6667,
    "lng": 79.2500
  },
  {
    "name": "Valainallurappar Temple",
    "alt_names": ["Thiru Valainallur Valainallurappar Temple"],
    "locality": "Valainallur",
    "district": "Tiruvannamalai",
    "state": "Tamil Nadu",
    "lat": 12.23,
    "lng": 79.06
  },
  {
    "name": "Viralmeendarappar Temple",
    "alt_names": ["Thiru Viralmeendar Viralmeendarappar Temple"],
    "locality": "Viralimalai",
    "district": "Pudukkottai",
    "state": "Tamil Nadu",
    "lat": 10.609,
    "lng": 78.498
  }
]