[
  {
    "name": "Srikalahasteeswara Temple, Srikalahasti",
    "alt_names": [
      "Thiru Kalahasti"
    ],
    "locality": "Srikalahasti",
    "district": "Tirupati",
    "state": "Andhra Pradesh",
    "lat": 13.7497,
    "lng": 79.6985
  },
  {
    "name": "Mallikarjuna Temple, Srisailam",
    "alt_names": [
      "Thirupparuppatham"
    ],
    "locality": "Srisailam",
    "district": "Nandyal",
    "state": "Andhra Pradesh",
    "lat": 16.073,
    "lng": 78.868
  },
  {
    "name": "Mahabaleshwarar Temple, Gokarna",
    "alt_names": [
      "Thirukkokarnam"
    ],
    "locality": "Gokarna",
    "district": "Uttara Kannada",
    "state": "Karnataka",
    "lat": 14.542,
    "lng": 74.316
  },
  {
    "name": "Thiruvanjikulam Mahadeva Temple",
    "alt_names": [],
    "locality": "Kodungallur",
    "district": "Thrissur",
    "state": "Kerala",
    "lat": 10.222,
    "lng": 76.2
  },
  {
    "name": "Ketheeswarar Temple, Thiruketheeswaram",
    "alt_names": [],
    "locality": "Mannar",
    "district": "Mannar",
    "state": "Northern Province",
    "lat": 8.981,
    "lng": 79.914
  },
  {
    "name": "Koneswaram Temple, Trincomalee",
    "alt_names": [
      "Thirukkoneswaram"
    ],
    "locality": "Trincomalee",
    "district": "Trincomalee",
    "state": "Eastern Province",
    "lat": 8.582,
    "lng": 81.246
  },
  {
    "name": "Neelkanth Mahadev Temple, Rishikesh",
    "alt_names": [
      "Thiru Indraneela Parvatham"
    ],
    "locality": "Rishikesh",
    "district": "Pauri Garhwal",
    "state": "Uttarakhand",
    "lat": 30.08,
    "lng": 78.35
  },
  {
    "name": "Kedarnath Temple, Kedarnath",
    "alt_names": [
      "Thirukkedaram"
    ],
    "locality": "Kedarnath",
    "district": "Rudraprayag",
    "state": "Uttarakhand",
    "lat": 30.735,
    "lng": 79.066
  },
  {
    "name": "Kailasanathar Temple, Mount Kailash",
    "alt_names": [
      "Thiru Kailayam"
    ],
    "locality": "Mount Kailash",
    "district": "Ngari Prefecture",
    "state": "Tibet",
    "lat": 31.066,
    "lng": 81.312
  }
]