[
  {
    "name": "Thillai Natarajar Temple",
    "alt_names": ["Chidambaram Temple", "Koil"],
    "locality": "Chidambaram",
    "district": "Cuddalore",
    "state": "Tamil Nadu",
    "lat": 11.39958,
    "lng": 79.69561
  },
  {
    "name": "Pasupatheeswarar Temple, Thiruvetkalam",
    "alt_names": ["Vetkalanathar Temple"],
    "locality": "Annamalai Nagar",
    "district": "Cuddalore",
    "state": "Tamil Nadu",
    "lat": 11.4081,
    "lng": 79.7183
  },
  {
    "name": "Arathurai Nathar Temple, Thirunelvayil",
    "alt_names": ["Sivapuranathar Temple"],
    "locality": "Thirunelvayil",
    "district": "Cuddalore",
    "state": "Tamil Nadu",
    "lat": 11.4682,
    "lng": 79.6251
  },
  {
    "name": "Palvannanathar Temple, Thirukazhippalai",
    "alt_names": [],
    "locality": "Sivapuri",
    "district": "Cuddalore",
    "state": "Tamil Nadu",
    "lat": 11.3934,
    "lng": 79.7225
  },
  {
    "name": "Pathanchali Nathar Temple, Thirukanattumullur",
    "alt_names": [],
    "locality": "Kanattumullur",
    "district": "Cuddalore",
    "state": "Tamil Nadu",
    "lat": 11.3653,
    "lng": 79.6136
  },
  {
    "name": "Soundareswarar Temple, Thiru Naraiyur",
    "alt_names": ["Thirunaraiyur"],
    "locality": "Naraiyur",
    "district": "Cuddalore",
    "state": "Tamil Nadu",
    "lat": 11.3108,
    "lng": 79.5275
  },
  {
    "name": "Amirthakadeswarar Temple, Melakadambur",
    "alt_names": ["Kadambur Temple"],
    "locality": "Melakadambur",
    "district": "Cuddalore",
    "state": "Tamil Nadu",
    "lat": 11.3001,
    "lng": 79.4912
  },
  {
    "name": "Pranava Vyakrapureeswarar Temple, Omampuliyur",
    "alt_names": [],
    "locality": "Omampuliyur",
    "district": "Cuddalore",
    "state": "Tamil Nadu",
    "lat": 11.3323,
    "lng": 79.4442
  },
  {
    "name": "Padaleeswarar Temple, Thiruppathiripuliyur",
    "alt_names": ["Cuddalore Padaleeswarar"],
    "locality": "Cuddalore",
    "district": "Cuddalore",
    "state": "Tamil Nadu",
    "lat": 11.7451,
    "lng": 79.7663
  },
  {
    "name": "Vruddhagireeswarar Temple, Vriddhachalam",
    "alt_names": ["Thirumudhukundram"],
    "locality": "Vriddhachalam",
    "district": "Cuddalore",
    "state": "Tamil Nadu",
    "lat": 11.5126,
    "lng": 79.3338
  },
  {
    "name": "Arulmozhitheechuram Temple, Nallur",
    "alt_names": ["Thiru Nallur"],
    "locality": "Nallur",
    "district": "Cuddalore",
    "state": "Tamil Nadu",
    "lat": 11.4583,
    "lng": 79.3094
  },
  {
    "name": "Sudarkozhundeeswarar Temple, Pennadam",
    "alt_names": ["Pralayakaleswarar Temple"],
    "locality": "Pennadam",
    "district": "Cuddalore",
    "state": "Tamil Nadu",
    "lat": 11.3833,
    "lng": 79.2333
  },
  {
    "name": "Theerthapureeswarar Temple, Thiruthinai Nagar",
    "alt_names": [],
    "locality": "Theerthanagiri",
    "district": "Cuddalore",
    "state": "Tamil Nadu",
    "lat": 11.6667,
    "lng": 79.7833
  },
  {
    "name": "Narthana Vallabeswarar Temple, Koodalaiyarrur",
    "alt_names": [],
    "locality": "Koodalaiyathur",
    "district": "Cuddalore",
    "state": "Tamil Nadu",
    "lat": 11.385,
    "lng": 79.405
  },
  {
    "name": "Neelakandeswarar Temple, Erukkathampuliyur",
    "alt_names": [],
    "locality": "Rajendrapattinam",
    "district": "Cuddalore",
    "state": "Tamil Nadu",
    "lat": 11.4169,
    "lng": 79.3667
  },
  {
    "name": "Kokileswarar Temple, Thiru Kozhambam",
    "alt_names": [],
    "locality": "Kozhambam",
    "district": "Cuddalore",
    "state": "Tamil Nadu",
    "lat": 11.196,
    "lng": 79.431
  },
  {
    "name": "Mayuranathar Temple, Mayiladuthurai",
    "alt_names": [],
    "locality": "Mayiladuthurai",
    "district": "Mayiladuthurai",
    "state": "Tamil Nadu",
    "lat": 11.1012,
    "lng": 79.6521
  },
  {
    "name": "Vaidhyanathar Temple, Thiru Valampuram",
    "alt_names": ["Thiruvaalampuram"],
    "locality": "Valampuram",
    "district": "Mayiladuthurai",
    "state": "Tamil Nadu",
    "lat": 11.206,
    "lng": 79.805
  },
  {
    "name": "Somanathaswamy Temple, Needur",
    "alt_names": ["Thiruneedur"],
    "locality": "Needur",
    "district": "Mayiladuthurai",
    "state": "Tamil Nadu",
    "lat": 11.127,
    "lng": 79.691
  },
  {
    "name": "Agnipureeswarar Temple, Anniyur",
    "alt_names": ["Thiruvanniyur"],
    "locality": "Anniyur",
    "district": "Mayiladuthurai",
    "state": "Tamil Nadu",
    "lat": 11.168,
    "lng": 79.692
  },
  {
    "name": "Manavaleswarar Temple, Velvikudi",
    "alt_names": ["Thiruvelvikudi"],
    "locality": "Velvikudi",
    "district": "Mayiladuthurai",
    "state": "Tamil Nadu",
    "lat": 11.116,
    "lng": 79.529
  },
  {
    "name": "Airavateswarar Temple, Ethirkolpadi",
    "alt_names": ["Thiruethirkolpadi"],
    "locality": "Mela Thirumanancheri",
    "district": "Mayiladuthurai",
    "state": "Tamil Nadu",
    "lat": 11.108,
    "lng": 79.526
  },
  {
    "name": "Uyyakondan Temple, Thirumanancheri",
    "alt_names": ["Thirumanancheri Kalyanasundareswarar Temple"],
    "locality": "Thirumanancheri",
    "district": "Mayiladuthurai",
    "state": "Tamil Nadu",
    "lat": 11.107,
    "lng": 79.516
  },
  {
    "name": "Azhagiyanathar Temple, Thirukurakkukka",
    "alt_names": [],
    "locality": "Kurakkukka",
    "district": "Mayiladuthurai",
    "state": "Tamil Nadu",
    "lat": 11.125,
    "lng": 79.558
  },
  {
    "name": "Manickavannar Temple, Vazhkoliputhur",
    "alt_names": [],
    "locality": "Thiruvaazhkoliputhur",
    "district": "Mayiladuthurai",
    "state": "Tamil Nadu",
    "lat": 11.196,
    "lng": 79.742
  },
  {
    "name": "Arunajadeswarar Temple, Thiruppanandal",
    "alt_names": [],
    "locality": "Thiruppanandal",
    "district": "Thanjavur",
    "state": "Tamil Nadu",
    "lat": 11.096,
    "lng": 79.467
  },
  {
    "name": "Pasupatheeswarar Temple, Thiru Aappadi",
    "alt_names": [],
    "locality": "Aappadi",
    "district": "Thanjavur",
    "state": "Tamil Nadu",
    "lat": 11.124,
    "lng": 79.471
  },
  {
    "name": "Chayavaneswarar Temple, Chayavanam",
    "alt_names": ["Thiruchayavanam"],
    "locality": "Sayavanam",
    "district": "Mayiladuthurai",
    "state": "Tamil Nadu",
    "lat": 11.233,
    "lng": 79.839
  },
  {
    "name": "Pallavaneswarar Temple, Poompuhar",
    "alt_names": ["Thiruppallavaneeswaram"],
    "locality": "Poompuhar",
    "district": "Mayiladuthurai",
    "state": "Tamil Nadu",
    "lat": 11.15,
    "lng": 79.85
  },
  {
    "name": "Swetharanyeswarar Temple, Thiruvenkadu",
    "alt_names": ["Thiruvengadu"],
    "locality": "Thiruvenkadu",
    "district": "Mayiladuthurai",
    "state": "Tamil Nadu",
    "lat": 11.196,
    "lng": 79.825
  },
  {
    "name": "Keezhthirukkattuppalli Aranyeswarar Temple",
    "alt_names": ["Thirukattupalli"],
    "locality": "Keezhthirukkattuppalli",
    "district": "Mayiladuthurai",
    "state": "Tamil Nadu",
    "lat": 11.171,
    "lng": 79.834
  },
  {
    "name": "Vilvavaneswarar Temple, Thirukollampudur",
    "alt_names": ["Thiruvalkoliputhur"],
    "locality": "Thirukollampudur",
    "district": "Thiruvarur",
    "state": "Tamil Nadu",
    "lat": 10.875,
    "lng": 79.483
  },
  {
    "name": "Swarnapureeswarar Temple, Semponnarkoil",
    "alt_names": ["Thirusemponpalli"],
    "locality": "Semponnarkoil",
    "district": "Mayiladuthurai",
    "state": "Tamil Nadu",
    "lat": 11.144,
    "lng": 79.748
  },
  {
    "name": "Nalladaiappar Temple, Thirunalladai",
    "alt_names": [],
    "locality": "Nalladai",
    "district": "Mayiladuthurai",
    "state": "Tamil Nadu",
    "lat": 11.1,
    "lng": 79.766
  },
  {
    "name": "Thanthonreeswarar Temple, Aakkur",
    "alt_names": ["Thiruakkur"],
    "locality": "Akkur",
    "district": "Mayiladuthurai",
    "state": "Tamil Nadu",
    "lat": 11.139,
    "lng": 79.782
  },
  {
    "name": "Kuttram Poruttha Nathar Temple, Thalainayar",
    "alt_names": ["Thiruthalainayar"],
    "locality": "Thalaignayiru",
    "district": "Nagapattinam",
    "state": "Tamil Nadu",
    "lat": 11.159,
    "lng": 79.805
  },
  {
    "name": "Veeratteswarar Temple, Kurukkai",
    "alt_names": ["Thirukurukkai"],
    "locality": "Korukkai",
    "district": "Mayiladuthurai",
    "state": "Tamil Nadu",
    "lat": 11.155,
    "lng": 79.62
  },
  {
    "name": "Nintriyur Nathar Temple, Thirunintravur",
    "alt_names": [],
    "locality": "Thirunindriyur",
    "district": "Mayiladuthurai",
    "state": "Tamil Nadu",
    "lat": 11.15,
    "lng": 79.725
  },
  {
    "name": "Valithayeswarar Temple, Padi",
    "alt_names": ["Thiruvalithayam"],
    "locality": "Padi",
    "district": "Chennai",
    "state": "Tamil Nadu",
    "lat": 13.097,
    "lng": 80.189
  },
  {
    "name": "Uthirapatheeswarar Temple, Thirukalambur",
    "alt_names": ["Thirukarkudi"],
    "locality": "Uyyakondan Thirumalai",
    "district": "Tiruchirappalli",
    "state": "Tamil Nadu",
    "lat": 10.793,
    "lng": 78.649
  },
  {
    "name": "Manickavannar Temple, Thirumarugal",
    "alt_names": [],
    "locality": "Thirumarugal",
    "district": "Nagapattinam",
    "state": "Tamil Nadu",
    "lat": 10.84,
    "lng": 79.752
  },
  {
    "name": "Ayavandeeswarar Temple, Sathamangai",
    "alt_names": ["Thiruchathamangai"],
    "locality": "Sathamangai",
    "district": "Nagapattinam",
    "state": "Tamil Nadu",
    "lat": 10.835,
    "lng": 79.774
  },
  {
    "name": "Kayarohanaswamy Temple, Nagapattinam",
    "alt_names": ["Thirunagaikaronam"],
    "locality": "Nagapattinam",
    "district": "Nagapattinam",
    "state": "Tamil Nadu",
    "lat": 10.763,
    "lng": 79.845
  },
  {
    "name": "Navaneetheswarar Temple, Sikkal",
    "alt_names": ["Thirusikkal"],
    "locality": "Sikkal",
    "district": "Nagapattinam",
    "state": "Tamil Nadu",
    "lat": 10.739,
    "lng": 79.789
  },
  {
    "name": "Kediliappar Temple, Keezhvelur",
    "alt_names": ["Thirukeezhvelur"],
    "locality": "Keezhvelur",
    "district": "Nagapattinam",
    "state": "Tamil Nadu",
    "lat": 10.722,
    "lng": 79.742
  },
  {
    "name": "Devapureeswarar Temple, Thevur",
    "alt_names": ["Thiruthevur"],
    "locality": "Thevur",
    "district": "Nagapattinam",
    "state": "Tamil Nadu",
    "lat": 10.785,
    "lng": 79.704
  },
  {
    "name": "Paimpozhil Nathar Temple, Thiruppaimpozhil",
    "alt_names": ["Thirupugalur Vardhamaneswaram"],
    "locality": "Thirupugalur",
    "district": "Nagapattinam",
    "state": "Tamil Nadu",
    "lat": 10.865,
    "lng": 79.684
  },
  {
    "name": "Soundareswarar Temple, Panaiyur",
    "alt_names": ["Thirupanaiyur"],
    "locality": "Thiruppanaiyur",
    "district": "Thiruvarur",
    "state": "Tamil Nadu",
    "lat": 10.839,
    "lng": 79.626
  },
  {
    "name": "Vaimur Nathar Temple, Thiru Vaimur",
    "alt_names": [],
    "locality": "Thiruvaimur",
    "district": "Thiruvarur",
    "state": "Tamil Nadu",
    "lat": 10.669,
    "lng": 79.791
  },
  {
    "name": "Vedaranyeswarar Temple, Vedaranyam",
    "alt_names": ["Thirumaraikkadu"],
    "locality": "Vedaranyam",
    "district": "Nagapattinam",
    "state": "Tamil Nadu",
    "lat": 10.372,
    "lng": 79.851
  },
  {
    "name": "Agastheeswarar Temple, Agathiyanpalli",
    "alt_names": [],
    "locality": "Agasthiyampalli",
    "district": "Nagapattinam",
    "state": "Tamil Nadu",
    "lat": 10.363,
    "lng": 79.845
  },
  {
    "name": "Kuzhagar Temple, Kodiakkarai",
    "alt_names": ["Thirukkodikka"],
    "locality": "Kodiakkarai",
    "district": "Nagapattinam",
    "state": "Tamil Nadu",
    "lat": 10.3,
    "lng": 79.85
  },
  {
    "name": "Idumbavaneswarar Temple, Idumbavanam",
    "alt_names": [],
    "locality": "Idumbavanam",
    "district": "Thiruvarur",
    "state": "Tamil Nadu",
    "lat": 10.428,
    "lng": 79.721
  },
  {
    "name": "Kadambar Koil",
    "alt_names": [],
    "locality": "Iluppaippattu",
    "district": "Mayiladuthurai",
    "state": "Tamil Nadu",
    "lat": 11.164,
    "lng": 79.6
  },
  {
    "name": "Uchisthar Temple, Ooratchi",
    "alt_names": [],
    "locality": "Manjakollai",
    "district": "Thiruvarur",
    "state": "Tamil Nadu",
    "lat": 10.51,
    "lng": 79.73
  },
  {
    "name": "Brahmapureeswarar Temple, Karunjeevi",
    "alt_names": [],
    "locality": "Karuveeli",
    "district": "Thiruvarur",
    "state": "Tamil Nadu",
    "lat": 10.87,
    "lng": 79.52
  },
  {
    "name": "Sarguneswarar Temple, Karuveli",
    "alt_names": ["Karuveeli"],
    "locality": "Karuveli",
    "district": "Thiruvarur",
    "state": "Tamil Nadu",
    "lat": 10.871,
    "lng": 79.519
  },
  {
    "name": "Sathgurunathar Temple",
    "alt_names": [],
    "locality": "Thittai",
    "district": "Thanjavur",
    "state": "Tamil Nadu",
    "lat": 10.852,
    "lng": 79.083
  },
  {
    "name": "Jambukeswarar Temple, Thiruvanaikaval",
    "alt_names": ["Thiruvanaikoil"],
    "locality": "Thiruvanaikaval",
    "district": "Tiruchirappalli",
    "state": "Tamil Nadu",
    "lat": 10.8534,
    "lng": 78.7054
  },
  {
    "name": "Tharugavaneshwarar Temple, Thirupparaithurai",
    "alt_names": [],
    "locality": "Thirupparaithurai",
    "district": "Tiruchirappalli",
    "state": "Tamil Nadu",
    "lat": 10.834,
    "lng": 78.588
  },
  {
    "name": "Erumbeeswarar Temple, Thiruverumbur",
    "alt_names": [],
    "locality": "Thiruverumbur",
    "district": "Tiruchirappalli",
    "state": "Tamil Nadu",
    "lat": 10.776,
    "lng": 78.756
  },
  {
    "name": "Nedungalathar Temple, Thirunedungalam",
    "alt_names": [],
    "locality": "Thirunedungulam",
    "district": "Tiruchirappalli",
    "state": "Tamil Nadu",
    "lat": 10.833,
    "lng": 78.835
  },
  {
    "name": "Agneeswarar Temple, Thirukattuppalli",
    "alt_names": [],
    "locality": "Thirukattupalli",
    "district": "Thanjavur",
    "state": "Tamil Nadu",
    "lat": 10.865,
    "lng": 78.95
  },
  {
    "name": "Aiyarappar Temple, Thiruvaiyaru",
    "alt_names": [],
    "locality": "Thiruvaiyaru",
    "district": "Thanjavur",
    "state": "Tamil Nadu",
    "lat": 10.883,
    "lng": 79.1
  },
  {
    "name": "Apathsahayar Temple, Thiruppazhanam",
    "alt_names": [],
    "locality": "Thirupazhanam",
    "district": "Thanjavur",
    "state": "Tamil Nadu",
    "lat": 10.9,
    "lng": 79.133
  },
  {
    "name": "Vedapureeswarar Temple, Thiruvedhikudi",
    "alt_names": [],
    "locality": "Thiruvedhikudi",
    "district": "Thanjavur",
    "state": "Tamil Nadu",
    "lat": 10.903,
    "lng": 79.081
  },
  {
    "name": "Othavaneswarar Temple, Thiruchotruthurai",
    "alt_names": [],
    "locality": "Thiruchottruthurai",
    "district": "Thanjavur",
    "state": "Tamil Nadu",
    "lat": 10.852,
    "lng": 79.049
  },
  {
    "name": "Veeratteswarar Temple, Thirukandiyur",
    "alt_names": [],
    "locality": "Thirukandiyur",
    "district": "Thanjavur",
    "state": "Tamil Nadu",
    "lat": 10.862,
    "lng": 79.083
  },
  {
    "name": "Pushpavananathar Temple, Thiruppanthuruthi",
    "alt_names": [],
    "locality": "Thirupoonthuruthi",
    "district": "Thanjavur",
    "state": "Tamil Nadu",
    "lat": 10.835,
    "lng": 79.079
  },
  {
    "name": "Ghritasthaneswara Temple, Thillaisthanam",
    "alt_names": ["Thiruneithanam"],
    "locality": "Thillaisthanam",
    "district": "Thanjavur",
    "state": "Tamil Nadu",
    "lat": 10.893,
    "lng": 79.083
  },
  {
    "name": "Vyakrapureeswarar Temple, Perumpuliyur",
    "alt_names": ["Thiruperumpuliyur"],
    "locality": "Perumpuliyur",
    "district": "Thanjavur",
    "state": "Tamil Nadu",
    "lat": 10.867,
    "lng": 79.042
  },
  {
    "name": "Chakravageswarar Temple, Thiruppalamanam",
    "alt_names": [],
    "locality": "Thirupalanam",
    "district": "Thanjavur",
    "state": "Tamil Nadu",
    "lat": 10.902,
    "lng": 79.133
  },
  {
    "name": "Atmanathar Temple, Thiru Alampozhil",
    "alt_names": [],
    "locality": "Thiruvalampozhil",
    "district": "Thanjavur",
    "state": "Tamil Nadu",
    "lat": 10.833,
    "lng": 79.016
  },
  {
    "name": "Jnanaparameswarar Temple, Thirukkanamangai",
    "alt_names": [],
    "locality": "Thirukanamangai",
    "district": "Thiruvarur",
    "state": "Tamil Nadu",
    "lat": 10.744,
    "lng": 79.676
  },
  {
    "name": "Thyagarajaswamy Temple, Thiruvarur",
    "alt_names": ["Thiruvarur Temple"],
    "locality": "Thiruvarur",
    "district": "Thiruvarur",
    "state": "Tamil Nadu",
    "lat": 10.7725,
    "lng": 79.6358
  },
  {
    "name": "Paravai Unmandali Thali Temple, Thirupparavayunmandali",
    "alt_names": [],
    "locality": "Paravai",
    "district": "Nagapattinam",
    "state": "Tamil Nadu",
    "lat": null,
    "lng": null
  },
  {
    "name": "Vilvanathar Temple, Thiru Vilamar",
    "alt_names": [],
    "locality": "Vilamal",
    "district": "Thiruvarur",
    "state": "Tamil Nadu",
    "lat": 10.755,
    "lng": 79.626
  },
  {
    "name": "Karaveereswarar Temple, Karaveeram",
    "alt_names": [],
    "locality": "Karaviram",
    "district": "Thiruvarur",
    "state": "Tamil Nadu",
    "lat": 10.71,
    "lng": 79.67
  },
  {
    "name": "Abhimuktheeswarar Temple, Peruvelur",
    "alt_names": ["Thiruperuvelur"],
    "locality": "Manakkal Ayyampettai",
    "district": "Thiruvarur",
    "state": "Tamil Nadu",
    "lat": 10.78,
    "lng": 79.52
  },
  {
    "name": "Narthana Vallabeswarar Temple, Thalaiyalangadu",
    "alt_names": [],
    "locality": "Thalaiyalangadu",
    "district": "Thiruvarur",
    "state": "Tamil Nadu",
    "lat": 10.92,
    "lng": 79.63
  },
  {
    "name": "Swarnapureeswarar Temple, Andankoil",
    "alt_names": ["Thirukaduvaikkarai Puthur"],
    "locality": "Andan Koil",
    "district": "Thiruvarur",
    "state": "Tamil Nadu",
    "lat": 10.66,
    "lng": 79.6
  },
  {
    "name": "Venniyurappar Temple, Kovilvenni",
    "alt_names": [],
    "locality": "Koilvenni",
    "district": "Thiruvarur",
    "state": "Tamil Nadu",
    "lat": 10.75,
    "lng": 79.43
  },
  {
    "name": "Agnipureeswarar Temple, Thirupugalur",
    "alt_names": [],
    "locality": "Thirupugalur",
    "district": "Nagapattinam",
    "state": "Tamil Nadu",
    "lat": 10.865,
    "lng": 79.684
  },
  {
    "name": "Ramanathaswamy Temple, Thiruramanathapuram",
    "alt_names": [],
    "locality": "Thirurameswaram",
    "district": "Thiruvarur",
    "state": "Tamil Nadu",
    "lat": 10.88,
    "lng": 79.61
  },
  {
    "name": "Payatrunathar Temple, Thirupayathur",
    "alt_names": [],
    "locality": "Thirupayathangudi",
    "district": "Thiruvarur",
    "state": "Tamil Nadu",
    "lat": 10.84,
    "lng": 79.6
  },
  {
    "name": "Uthirapatheeswarar Temple, Thiruchenkattankudi",
    "alt_names": [],
    "locality": "Thiruchengattankudi",
    "district": "Nagapattinam",
    "state": "Tamil Nadu",
    "lat": 10.85,
    "lng": 79.7
  },
  {
    "name": "Madhuvaneswarar Temple, Nannilam",
    "alt_names": [],
    "locality": "Nannilam",
    "district": "Thiruvarur",
    "state": "Tamil Nadu",
    "lat": 10.9,
    "lng": 79.62
  },
  {
    "name": "Vanchinadhaswamy Temple, Srivanjiyam",
    "alt_names": [],
    "locality": "Srivanjiyam",
    "district": "Thiruvarur",
    "state": "Tamil Nadu",
    "lat": 10.9,
    "lng": 79.53
  },
  {
    "name": "Siddhanatheswarar Temple, Naraiyur",
    "alt_names": ["Thirunaraiyur"],
    "locality": "Thirunaraiyur",
    "district": "Thiruvarur",
    "state": "Tamil Nadu",
    "lat": 10.85,
    "lng": 79.5
  },
  {
    "name": "Padikkasunathar Temple, Azhagaputhur",
    "alt_names": ["Thiru Arisirkaraiputhur"],
    "locality": "Azhagaputhur",
    "district": "Thanjavur",
    "state": "Tamil Nadu",
    "lat": 10.98,
    "lng": 79.43
  },
  {
    "name": "Sivagurunathaswamy Temple, Sivapuram",
    "alt_names": [],
    "locality": "Sivapuram",
    "district": "Thanjavur",
    "state": "Tamil Nadu",
    "lat": 10.93,
    "lng": 79.35
  },
  {
    "name": "Sarguneswarar Temple, Karukkudi",
    "alt_names": [],
    "locality": "Thirukarukudi",
    "district": "Thanjavur",
    "state": "Tamil Nadu",
    "lat": 10.95,
    "lng": 79.3
  },
  {
    "name": "Ramanathaswamy Temple, Thirukannapuram",
    "alt_names": [],
    "locality": "Thirukannapuram",
    "district": "Thiruvarur",
    "state": "Tamil Nadu",
    "lat": 10.87,
    "lng": 79.7
  },
  {
    "name": "Nallam Nathar Temple, Konerirajapuram",
    "alt_names": ["Thirunallam"],
    "locality": "Konerirajapuram",
    "district": "Mayiladuthurai",
    "state": "Tamil Nadu",
    "lat": 10.97,
    "lng": 79.53
  },
  {
    "name": "Agneeswarar Temple, Thirukollikadu",
    "alt_names": [],
    "locality": "Thirukollikadu",
    "district": "Thiruvarur",
    "state": "Tamil Nadu",
    "lat": 10.63,
    "lng": 79.58
  },
  {
    "name": "Vellimalainathar Temple, Thengur",
    "alt_names": [],
    "locality": "Thenkur",
    "district": "Thiruvarur",
    "state": "Tamil Nadu",
    "lat": 10.65,
    "lng": 79.63
  },
  {
    "name": "Kodeeswarar Temple, Kottaiyur",
    "alt_names": [],
    "locality": "Kottaiyur",
    "district": "Sivaganga",
    "state": "Tamil Nadu",
    "lat": 10.08,
    "lng": 78.8
  },
  {
    "name": "Nethrapureeswarar Temple, Irumpoolai",
    "alt_names": [],
    "locality": "Keelaperumpallam",
    "district": "Mayiladuthurai",
    "state": "Tamil Nadu",
    "lat": 11.17,
    "lng": 79.84
  },
  {
    "name": "Brahmapureeswarar Temple, Ambar",
    "alt_names": [],
    "locality": "Ambal",
    "district": "Mayiladuthurai",
    "state": "Tamil Nadu",
    "lat": 11.02,
    "lng": 79.73
  },
  {
    "name": "Mahakalanathar Temple, Ambar",
    "alt_names": ["Thiru Ambar Makalam"],
    "locality": "Thirumahalam",
    "district": "Mayiladuthurai",
    "state": "Tamil Nadu",
    "lat": 11.01,
    "lng": 79.74
  },
  {
    "name": "Sakalabhuvaneswarar Temple, Meeyachur",
    "alt_names": ["Thiru Meeyachur Ilamkovil"],
    "locality": "Peralam",
    "district": "Thiruvarur",
    "state": "Tamil Nadu",
    "lat": 10.95,
    "lng": 79.68
  },
  {
    "name": "Meganathaswamy Temple, Meeyachur",
    "alt_names": ["Thiru Meeyachur"],
    "locality": "Peralam",
    "district": "Thiruvarur",
    "state": "Tamil Nadu",
    "lat": 10.95,
    "lng": 79.68
  },
  {
    "name": "Muktheeswarar Temple, Thilathaipathi",
    "alt_names": [],
    "locality": "Sethalapathy",
    "district": "Thiruvarur",
    "state": "Tamil Nadu",
    "lat": 10.87,
    "lng": 79.73
  },
  {
    "name": "Paampuranathar Temple, Thirupampuram",
    "alt_names": [],
    "locality": "Thirupampuram",
    "district": "Thiruvarur",
    "state": "Tamil Nadu",
    "lat": 10.93,
    "lng": 79.65
  },
  {
    "name": "Mangalanathaswamy Temple, Sirukudi",
    "alt_names": [],
    "locality": "Sirukudi",
    "district": "Thiruvarur",
    "state": "Tamil Nadu",
    "lat": 10.88,
    "lng": 79.48
  },
  {
    "name": "Neelakandeswarar Temple, Thandalaineelnari",
    "alt_names": [],
    "locality": "Thandalacheri",
    "district": "Thiruvarur",
    "state": "Tamil Nadu",
    "lat": 10.85,
    "lng": 79.75
  },
  {
    "name": "Hridayakamalanathar Temple, Valivalam",
    "alt_names": [],
    "locality": "Valivalam",
    "district": "Thiruvarur",
    "state": "Tamil Nadu",
    "lat": 10.63,
    "lng": 79.7
  },
  {
    "name": "Kaichineswarar Temple, Kachanam",
    "alt_names": [],
    "locality": "Kachanam",
    "district": "Thiruvarur",
    "state": "Tamil Nadu",
    "lat": 10.68,
    "lng": 79.75
  },
  {
    "name": "Jagadeeswarar Temple, Pereyil",
    "alt_names": [],
    "locality": "Koil Kannapur",
    "district": "Thiruvarur",
    "state": "Tamil Nadu",
    "lat": 10.87,
    "lng": 79.7
  },
  {
    "name": "Sankaranyeswarar Temple, Thalaichangadu",
    "alt_names": [],
    "locality": "Thalaichangadu",
    "district": "Mayiladuthurai",
    "state": "Tamil Nadu",
    "lat": 11.12,
    "lng": 79.8
  },
  {
    "name": "Kadaimudinathar Temple, Keezhaiyur",
    "alt_names": [],
    "locality": "Keezhaiyur",
    "district": "Nagapattinam",
    "state": "Tamil Nadu",
    "lat": 11.13,
    "lng": 79.82
  },
  {
    "name": "Dharmapureeswarar Temple, Dharmapuram",
    "alt_names": [],
    "locality": "Thirudharmapuram",
    "district": "Karaikal",
    "state": "Puducherry",
    "lat": 10.97,
    "lng": 79.77
  },
  {
    "name": "Kalyanasundareswarar Temple, Thirunallur",
    "alt_names": [],
    "locality": "Nallur",
    "district": "Thiruvarur",
    "state": "Tamil Nadu",
    "lat": 10.88,
    "lng": 79.5
  },
  {
    "name": "Pasupatheeswarar Temple, Aavur",
    "alt_names": [],
    "locality": "Aavur",
    "district": "Thiruvarur",
    "state": "Tamil Nadu",
    "lat": 10.8,
    "lng": 79.3
  },
  {
    "name": "Sivakozhundeeswarar Temple, Sathimutham",
    "alt_names": [],
    "locality": "Thiru Sakthi Mutram",
    "district": "Thanjavur",
    "state": "Tamil Nadu",
    "lat": 10.94,
    "lng": 79.28
  },
  {
    "name": "Somanathar Temple, Palaiyarai Vadathali",
    "alt_names": [],
    "locality": "Pazhayarai",
    "district": "Thanjavur",
    "state": "Tamil Nadu",
    "lat": 10.93,
    "lng": 79.33
  },
  {
    "name": "Chakravageswarar Temple, Sakkarappalli",
    "alt_names": [],
    "locality": "Chakrapalli",
    "district": "Thanjavur",
    "state": "Tamil Nadu",
    "lat": 10.88,
    "lng": 79.18
  },
  {
    "name": "Mullai Vana Nathar Temple, Thirukarugavur",
    "alt_names": [],
    "locality": "Thirukarukavur",
    "district": "Thanjavur",
    "state": "Tamil Nadu",
    "lat": 10.86,
    "lng": 79.26
  },
  {
    "name": "Pasupatheeswarar Temple, Govindagudi",
    "alt_names": ["Thiruppaasoor"],
    "locality": "Avoor",
    "district": "Thanjavur",
    "state": "Tamil Nadu",
    "lat": 10.8,
    "lng": 79.3
  },
  {
    "name": "Sivalokanathar Temple, Achalpuram",
    "alt_names": ["Thirunallur Perumanam"],
    "locality": "Achalpuram",
    "district": "Mayiladuthurai",
    "state": "Tamil Nadu",
    "lat": 11.33,
    "lng": 79.73
  },
  {
    "name": "Ezhutharinathar Temple, Innambur",
    "alt_names": [],
    "locality": "Innambur",
    "district": "Thanjavur",
    "state": "Tamil Nadu",
    "lat": 10.97,
    "lng": 79.3
  },
  {
    "name": "Panangattur Nathar Temple, Thiruppanangattur",
    "alt_names": [],
    "locality": "Thirupanangattur",
    "district": "Thiruvarur",
    "state": "Tamil Nadu",
    "lat": 10.7,
    "lng": 79.52
  },
  {
    "name": "Niyamamudaiyar Temple, Niyamam",
    "alt_names": [],
    "locality": "Thiruniyamam",
    "district": "Thanjavur",
    "state": "Tamil Nadu",
    "lat": 10.73,
    "lng": 79.03
  },
  {
    "name": "Vadamoolanathar Temple, Alanthurai",
    "alt_names": [],
    "locality": "Thiruvalanchuzhi",
    "district": "Thanjavur",
    "state": "Tamil Nadu",
    "lat": 10.95,
    "lng": 79.3
  },
  {
    "name": "Nadanapureeswarar Temple, Thandanthottam",
    "alt_names": [],
    "locality": "Thandanthottam",
    "district": "Thanjavur",
    "state": "Tamil Nadu",
    "lat": 10.92,
    "lng": 79.38
  },
  {
    "name": "Krupakupareswarar Temple, Thiruvazhamangalam",
    "alt_names": [],
    "locality": "Thiruvaikavur",
    "district": "Thanjavur",
    "state": "Tamil Nadu",
    "lat": 11.02,
    "lng": 79.37
  },
  {
    "name": "Koneswarar Temple, Kudavasal",
    "alt_names": [],
    "locality": "Kudavasal",
    "district": "Thiruvarur",
    "state": "Tamil Nadu",
    "lat": 10.83,
    "lng": 79.5
  },
  {
    "name": "Sarguneswarar Temple, Seruvili",
    "alt_names": [],
    "locality": "Cheruvili",
    "district": "Thiruvarur",
    "state": "Tamil Nadu",
    "lat": null,
    "lng": null
  },
  {
    "name": "Rathnapureeswarar Temple, Naattiyathankudi",
    "alt_names": [],
    "locality": "Nattiyathankudi",
    "district": "Thiruvarur",
    "state": "Tamil Nadu",
    "lat": 10.7,
    "lng": 79.5
  },
  {
    "name": "Pasupatheeswarar Temple, Pandanallur",
    "alt_names": [],
    "locality": "Pandanallur",
    "district": "Thanjavur",
    "state": "Tamil Nadu",
    "lat": 11.08,
    "lng": 79.5
  },
  {
    "name": "Agneeswarar Temple, Kanjanur",
    "alt_names": [],
    "locality": "Kanjanur",
    "district": "Thanjavur",
    "state": "Tamil Nadu",
    "lat": 11.09,
    "lng": 79.43
  },
  {
    "name": "Kodeeswarar Temple, Thirukkodikkaval",
    "alt_names": [],
    "locality": "Thirukodukaval",
    "district": "Thanjavur",
    "state": "Tamil Nadu",
    "lat": 11.03,
    "lng": 79.45
  },
  {
    "name": "Prananadeswarar Temple, Thirumangalakudi",
    "alt_names": [],
    "locality": "Thirumangalakudi",
    "district": "Thanjavur",
    "state": "Tamil Nadu",
    "lat": 11.08,
    "lng": 79.42
  },
  {
    "name": "Vyagrapureeswarar Temple, Thiruvaikavur",
    "alt_names": [],
    "locality": "Thiruvaikavur",
    "district": "Thanjavur",
    "state": "Tamil Nadu",
    "lat": 11.02,
    "lng": 79.37
  },
  {
    "name": "Neelakandeswarar Temple, Iluppapattu",
    "alt_names": [],
    "locality": "Iluppapattu",
    "district": "Mayiladuthurai",
    "state": "Tamil Nadu",
    "lat": 11.16,
    "lng": 79.6
  },
  {
    "name": "Parvatheeswarar Temple, Koilpathu",
    "alt_names": ["Thiru Thelichery"],
    "locality": "Thiruthalaichangadu",
    "district": "Karaikal",
    "state": "Puducherry",
    "lat": 11.12,
    "lng": 79.8
  },
  {
    "name": "Amirthakadeswarar Temple, Sakkottai",
    "alt_names": ["Thiru Kalayanallur"],
    "locality": "Kalayanallur",
    "district": "Thanjavur",
    "state": "Tamil Nadu",
    "lat": 10.95,
    "lng": 79.35
  },
  {
    "name": "Someswarar Temple, Kumbakonam",
    "alt_names": ["Thiru Kudanthai Karonam"],
    "locality": "Kumbakonam",
    "district": "Thanjavur",
    "state": "Tamil Nadu",
    "lat": 10.96,
    "lng": 79.38
  },
  {
    "name": "Nageswarar Temple, Kumbakonam",
    "alt_names": ["Thiru Kudanthai Keezhkottam"],
    "locality": "Kumbakonam",
    "district": "Thanjavur",
    "state": "Tamil Nadu",
    "lat": 10.95,
    "lng": 79.37
  },
  {
    "name": "Vijayanatheswarar Temple, Thiruvisayamangai",
    "alt_names": [],
    "locality": "Kovilacheri",
    "district": "Thanjavur",
    "state": "Tamil Nadu",
    "lat": 11,
    "lng": 79.38
  },
  {
    "name": "Vaikal Nathar Temple, Thiruvaikal",
    "alt_names": [],
    "locality": "Thiruvaikal",
    "district": "Thiruvarur",
    "state": "Tamil Nadu",
    "lat": 10.88,
    "lng": 79.52
  },
  {
    "name": "Gomuktheeswarar Temple, Thiruvaduthurai",
    "alt_names": [],
    "locality": "Thiruvavaduthurai",
    "district": "Mayiladuthurai",
    "state": "Tamil Nadu",
    "lat": 11.05,
    "lng": 79.52
  },
  {
    "name": "Uthavedeeswarar Temple, Kuthalam",
    "alt_names": ["Thiru Thuruthy"],
    "locality": "Kuthalam",
    "district": "Mayiladuthurai",
    "state": "Tamil Nadu",
    "lat": 11.08,
    "lng": 79.55
  },
  {
    "name": "Brahmapureeswarar Temple, Manthai",
    "alt_names": [],
    "locality": "Thirunraiyur",
    "district": "Mayiladuthurai",
    "state": "Tamil Nadu",
    "lat": 11.31,
    "lng": 79.52
  },
  {
    "name": "Pasupatheeswarar Temple, Thiruppalathurai",
    "alt_names": [],
    "locality": "Papanasam",
    "district": "Thanjavur",
    "state": "Tamil Nadu",
    "lat": 10.93,
    "lng": 79.27
  },
  {
    "name": "Viswanathar Temple, Saathangudi",
    "alt_names": [],
    "locality": "Thiruchattimutram",
    "district": "Thanjavur",
    "state": "Tamil Nadu",
    "lat": 10.94,
    "lng": 79.28
  },
  {
    "name": "Thanjapureeswarar Temple, Thanjavur",
    "alt_names": [],
    "locality": "Thanjavur",
    "district": "Thanjavur",
    "state": "Tamil Nadu",
    "lat": 10.78,
    "lng": 79.13
  },
  {
    "name": "Karpaganathar Temple, Thirukkadikulam",
    "alt_names": [],
    "locality": "Thiruvalanchuzhi",
    "district": "Thanjavur",
    "state": "Tamil Nadu",
    "lat": 10.95,
    "lng": 79.3
  },
  {
    "name": "Somanathar Temple, Karaikkal",
    "alt_names": [],
    "locality": "Thiruvettakudy",
    "district": "Karaikal",
    "state": "Puducherry",
    "lat": 10.97,
    "lng": 79.82
  },
  {
    "name": "Pushpavananathar Temple, Thirupuvanam",
    "alt_names": ["Thirupoovanam"],
    "locality": "Thirubuvanam",
    "district": "Sivaganga",
    "state": "Tamil Nadu",
    "lat": 9.85,
    "lng": 78.27
  },
  {
    "name": "Edakanathar Temple, Thiruvedagam",
    "alt_names": [],
    "locality": "Thiruvedagam",
    "district": "Madurai",
    "state": "Tamil Nadu",
    "lat": 9.98,
    "lng": 78.02
  },
  {
    "name": "Subramanya Swamy Temple, Thiruparankundram",
    "alt_names": [],
    "locality": "Thiruparankundram",
    "district": "Madurai",
    "state": "Tamil Nadu",
    "lat": 9.88,
    "lng": 78.08
  },
  {
    "name": "Aappudaiyar Temple, Sellur",
    "alt_names": ["Thiru Aappanoor"],
    "locality": "Sellur",
    "district": "Madurai",
    "state": "Tamil Nadu",
    "lat": 9.93,
    "lng": 78.12
  },
  {
    "name": "Imayil Nanmai Tharuvar Temple, Madurai",
    "alt_names": ["Thiruvalavai"],
    "locality": "Madurai",
    "district": "Madurai",
    "state": "Tamil Nadu",
    "lat": 9.919,
    "lng": 78.119
  },
  {
    "name": "Kutralanathar Temple, Courtallam",
    "alt_names": ["Thirukutralam"],
    "locality": "Courtallam",
    "district": "Tenkasi",
    "state": "Tamil Nadu",
    "lat": 8.9288,
    "lng": 77.2691
  },
  {
    "name": "Nellaiappar Temple, Tirunelveli",
    "alt_names": ["Thirunelveli"],
    "locality": "Tirunelveli",
    "district": "Tirunelveli",
    "state": "Tamil Nadu",
    "lat": 8.7296,
    "lng": 77.6865
  },
  {
    "name": "Kodunkundranathar Temple, Piranmalai",
    "alt_names": [],
    "locality": "Piranmalai",
    "district": "Sivaganga",
    "state": "Tamil Nadu",
    "lat": 10.1,
    "lng": 78.43
  },
  {
    "name": "Thiruthalinathar Temple, Thirupputhur",
    "alt_names": [],
    "locality": "Thiruppathur",
    "district": "Sivaganga",
    "state": "Tamil Nadu",
    "lat": 10.13,
    "lng": 78.6
  },
  {
    "name": "Kaleeswarar Temple, Kalaiyarkoil",
    "alt_names": [],
    "locality": "Kalayarkoil",
    "district": "Sivaganga",
    "state": "Tamil Nadu",
    "lat": 9.83,
    "lng": 78.62
  },
  {
    "name": "Vruddhapureeswarar Temple, Thiruppunavasal",
    "alt_names": [],
    "locality": "Thiruppunavasal",
    "district": "Pudukkottai",
    "state": "Tamil Nadu",
    "lat": 9.93,
    "lng": 79.13
  },
  {
    "name": "Ramanathaswamy Temple, Rameswaram",
    "alt_names": [],
    "locality": "Rameswaram",
    "district": "Ramanathapuram",
    "state": "Tamil Nadu",
    "lat": 9.2881,
    "lng": 79.3174
  },
  {
    "name": "Adhanathaswamy Temple, Thiruvadanai",
    "alt_names": [],
    "locality": "Thiruvadanai",
    "district": "Ramanathapuram",
    "state": "Tamil Nadu",
    "lat": 9.77,
    "lng": 78.92
  },
  {
    "name": "Kailasanathar Temple, Kanchivayil",
    "alt_names": [],
    "locality": "Thirukanaper",
    "district": "Sivaganga",
    "state": "Tamil Nadu",
    "lat": 9.83,
    "lng": 78.62
  },
  {
    "name": "Mangalanathaswamy Temple, Uthirakosamangai",
    "alt_names": [],
    "locality": "Uthirakosamangai",
    "district": "Ramanathapuram",
    "state": "Tamil Nadu",
    "lat": 9.28,
    "lng": 78.73
  },
  {
    "name": "Avinasiappar Temple, Avinashi",
    "alt_names": [],
    "locality": "Avinashi",
    "district": "Tiruppur",
    "state": "Tamil Nadu",
    "lat": 11.1687,
    "lng": 77.1706
  },
  {
    "name": "Muruganathaswamy Temple, Thirumuruganpoondi",
    "alt_names": [],
    "locality": "Thirumuruganpoondi",
    "district": "Tiruppur",
    "state": "Tamil Nadu",
    "lat": 11.2,
    "lng": 77.25
  },
  {
    "name": "Nattatreeswarar Temple, Nanipalli",
    "alt_names": [],
    "locality": "Bhavani",
    "district": "Erode",
    "state": "Tamil Nadu",
    "lat": 11.45,
    "lng": 77.68
  },
  {
    "name": "Magudeswarar Temple, Kodumudi",
    "alt_names": [],
    "locality": "Kodumudi",
    "district": "Erode",
    "state": "Tamil Nadu",
    "lat": 11.08,
    "lng": 77.88
  },
  {
    "name": "Pasupatheeswarar Temple, Karur",
    "alt_names": [],
    "locality": "Karur",
    "district": "Karur",
    "state": "Tamil Nadu",
    "lat": 10.95,
    "lng": 78.08
  },
  {
    "name": "Ardhanareeswarar Temple, Thiruchengodu",
    "alt_names": [],
    "locality": "Tiruchengode",
    "district": "Namakkal",
    "state": "Tamil Nadu",
    "lat": 11.38,
    "lng": 77.9
  },
  {
    "name": "Vikirthanatheswarar Temple, Venjamangudalur",
    "alt_names": [],
    "locality": "Vellakoil",
    "district": "Tiruppur",
    "state": "Tamil Nadu",
    "lat": 10.93,
    "lng": 77.72
  },
  {
    "name": "Veerattaneswarar Temple, Thiruvathigai",
    "alt_names": [],
    "locality": "Thiruvathigai",
    "district": "Cuddalore",
    "state": "Tamil Nadu",
    "lat": 11.83,
    "lng": 79.57
  },
  {
    "name": "Pasupatheeswarar Temple, Thiruthuraiyur",
    "alt_names": [],
    "locality": "Thiruthuraiyur",
    "district": "Cuddalore",
    "state": "Tamil Nadu",
    "lat": 11.78,
    "lng": 79.52
  },
  {
    "name": "Maruthureeswarar Temple, Thiru Idaiyaru",
    "alt_names": [],
    "locality": "Thiruvennainallur",
    "district": "Viluppuram",
    "state": "Tamil Nadu",
    "lat": 11.85,
    "lng": 79.47
  },
  {
    "name": "Kirupaipureeswarar Temple, Tiruvennainallur",
    "alt_names": [],
    "locality": "Tiruvennainallur",
    "district": "Viluppuram",
    "state": "Tamil Nadu",
    "lat": 11.85,
    "lng": 79.47
  },
  {
    "name": "Veeratteswarar Temple, Thirukkovilur",
    "alt_names": [],
    "locality": "Thirukoilure",
    "district": "Viluppuram",
    "state": "Tamil Nadu",
    "lat": 11.97,
    "lng": 79.2
  },
  {
    "name": "Opporuvarumilladha Nayagar Temple, Arakandanallur",
    "alt_names": [],
    "locality": "Arakandanallur",
    "district": "Viluppuram",
    "state": "Tamil Nadu",
    "lat": 11.97,
    "lng": 79.18
  },
  {
    "name": "Mundeeswarar Temple, Gramam",
    "alt_names": [],
    "locality": "Gramam",
    "district": "Viluppuram",
    "state": "Tamil Nadu",
    "lat": 12.02,
    "lng": 79.5
  },
  {
    "name": "Mahakaleswarar Temple, Irumbai",
    "alt_names": [],
    "locality": "Irumbai",
    "district": "Viluppuram",
    "state": "Tamil Nadu",
    "lat": 12.02,
    "lng": 79.8
  },
  {
    "name": "Thirumeni Azhagar Temple, Mahendrapalli",
    "alt_names": [],
    "locality": "Mahendrapalli",
    "district": "Mayiladuthurai",
    "state": "Tamil Nadu",
    "lat": 11.35,
    "lng": 79.77
  },
  {
    "name": "Ekambareswarar Temple, Kanchipuram",
    "alt_names": ["Thiru Ekambam"],
    "locality": "Kanchipuram",
    "district": "Kanchipuram",
    "state": "Tamil Nadu",
    "lat": 12.8475,
    "lng": 79.7006
  },
  {
    "name": "Thirumetrakeeswarar Temple, Kanchipuram",
    "alt_names": ["Thiru Metrali"],
    "locality": "Kanchipuram",
    "district": "Kanchipuram",
    "state": "Tamil Nadu",
    "lat": 12.83,
    "lng": 79.7
  },
  {
    "name": "Onakantheswarar Temple, Kanchipuram",
    "alt_names": ["Thiru Onakanthan Thali"],
    "locality": "Kanchipuram",
    "district": "Kanchipuram",
    "state": "Tamil Nadu",
    "lat": 12.83,
    "lng": 79.69
  },
  {
    "name": "Kailasanathar Temple, Kanchipuram",
    "alt_names": [],
    "locality": "Kanchipuram",
    "district": "Kanchipuram",
    "state": "Tamil Nadu",
    "lat": 12.84,
    "lng": 79.69
  },
  {
    "name": "Anekadhangavadeswarar Temple, Kanchipuram",
    "alt_names": [],
    "locality": "Kanchipuram",
    "district": "Kanchipuram",
    "state": "Tamil Nadu",
    "lat": 12.84,
    "lng": 79.7
  },
  {
    "name": "Punyakoteeswarar Temple, Thirukaraikadu",
    "alt_names": [],
    "locality": "Thirukalimedu",
    "district": "Kanchipuram",
    "state": "Tamil Nadu",
    "lat": 12.85,
    "lng": 79.72
  },
  {
    "name": "Vaaleeswarar Temple, Kuranganilmuttam",
    "alt_names": [],
    "locality": "Kuranganilmuttam",
    "district": "Kanchipuram",
    "state": "Tamil Nadu",
    "lat": 12.75,
    "lng": 79.72
  },
  {
    "name": "Magaraleeswarar Temple, Magaral",
    "alt_names": [],
    "locality": "Magaral",
    "district": "Kanchipuram",
    "state": "Tamil Nadu",
    "lat": 12.7,
    "lng": 79.63
  },
  {
    "name": "Iravadeeswarar Temple, Vanparthanpanamkotur",
    "alt_names": [],
    "locality": "Thirumalper",
    "district": "Ranipet",
    "state": "Tamil Nadu",
    "lat": 12.92,
    "lng": 79.58
  },
  {
    "name": "Pasupatheeswarar Temple, Thiruppasur",
    "alt_names": [],
    "locality": "Thiruppasur",
    "district": "Tiruvallur",
    "state": "Tamil Nadu",
    "lat": 13.15,
    "lng": 79.9
  },
  {
    "name": "Vada Aranyeswarar Temple, Thiruvalangadu",
    "alt_names": [],
    "locality": "Thiruvalangadu",
    "district": "Tiruvallur",
    "state": "Tamil Nadu",
    "lat": 13.13,
    "lng": 79.77
  },
  {
    "name": "Palaivananathar Temple, Thiruppalaivanam",
    "alt_names": [],
    "locality": "Thiruppalaivanam",
    "district": "Tiruvallur",
    "state": "Tamil Nadu",
    "lat": 13.35,
    "lng": 80.17
  },
  {
    "name": "Kapaleeshwarar Temple, Mylapore",
    "alt_names": [],
    "locality": "Mylapore",
    "district": "Chennai",
    "state": "Tamil Nadu",
    "lat": 13.0337,
    "lng": 80.27
  },
  {
    "name": "Marundeeswarar Temple, Thiruvanmiyur",
    "alt_names": [],
    "locality": "Thiruvanmiyur",
    "district": "Chennai",
    "state": "Tamil Nadu",
    "lat": 12.984,
    "lng": 80.26
  },
  {
    "name": "Gnanapureeswarar Temple, Thiruvadisoolam",
    "alt_names": ["Thiru Idaichuram"],
    "locality": "Thiruvadisoolam",
    "district": "Chengalpattu",
    "state": "Tamil Nadu",
    "lat": 12.73,
    "lng": 79.92
  },
  {
    "name": "Vedagiriswarar Temple, Thirukazhukundram",
    "alt_names": [],
    "locality": "Thirukazhukundram",
    "district": "Chengalpattu",
    "state": "Tamil Nadu",
    "lat": 12.6,
    "lng": 80.05
  },
  {
    "name": "Atcheeswarar Temple, Achirupakkam",
    "alt_names": [],
    "locality": "Acharapakkam",
    "district": "Chengalpattu",
    "state": "Tamil Nadu",
    "lat": 12.38,
    "lng": 79.78
  },
  {
    "name": "Jalanatheeswarar Temple, Thakkolam",
    "alt_names": [],
    "locality": "Thakkolam",
    "district": "Ranipet",
    "state": "Tamil Nadu",
    "lat": 13.03,
    "lng": 79.72
  },
  {
    "name": "Arambeswarar Temple, Ilambaiyankottur",
    "alt_names": [],
    "locality": "Elumiyankottur",
    "district": "Kanchipuram",
    "state": "Tamil Nadu",
    "lat": 13.05,
    "lng": 79.8
  },
  {
    "name": "Virkooteswarar Temple, Virkootam",
    "alt_names": [],
    "locality": "Kuvam",
    "district": "Tiruvallur",
    "state": "Tamil Nadu",
    "lat": 13.05,
    "lng": 79.83
  },
  {
    "name": "Vedeswarar Temple, Thiru Bothur",
    "alt_names": [],
    "locality": "Vellavedu",
    "district": "Tiruvallur",
    "state": "Tamil Nadu",
    "lat": 13.1,
    "lng": 80.03
  },
  {
    "name": "Arunachaleswarar Temple, Tiruvannamalai",
    "alt_names": ["Annamalaiyar Temple"],
    "locality": "Tiruvannamalai",
    "district": "Tiruvannamalai",
    "state": "Tamil Nadu",
    "lat": 12.2319,
    "lng": 79.0677
  },
  {
    "name": "Srikalahasteeswara Temple, Srikalahasti",
    "alt_names": ["Thiru Kalahasti"],
    "locality": "Srikalahasti",
    "district": "Tirupati",
    "state": "Andhra Pradesh",
    "lat": 13.7497,
    "lng": 79.6985
  },
  {
    "name": "Mallikarjuna Temple, Srisailam",
    "alt_names": ["Thirupparuppatham"],
    "locality": "Srisailam",
    "district": "Nandyal",
    "state": "Andhra Pradesh",
    "lat": 16.073,
    "lng": 78.868
  },
  {
    "name": "Mahabaleshwarar Temple, Gokarna",
    "alt_names": ["Thirukkokarnam"],
    "locality": "Gokarna",
    "district": "Uttara Kannada",
    "state": "Karnataka",
    "lat": 14.542,
    "lng": 74.316
  },
  {
    "name": "Thiruvanjikulam Mahadeva Temple",
    "alt_names": [],
    "locality": "Kodungallur",
    "district": "Thrissur",
    "state": "Kerala",
    "lat": 10.222,
    "lng": 76.2
  },
  {
    "name": "Ketheeswarar Temple, Thiruketheeswaram",
    "alt_names": [],
    "locality": "Mannar",
    "district": "Mannar",
    "state": "Northern Province",
    "lat": 8.981,
    "lng": 79.914
  },
  {
    "name": "Koneswaram Temple, Trincomalee",
    "alt_names": ["Thirukkoneswaram"],
    "locality": "Trincomalee",
    "district": "Trincomalee",
    "state": "Eastern Province",
    "lat": 8.582,
    "lng": 81.246
  },
  {
    "name": "Neelkanth Mahadev Temple, Rishikesh",
    "alt_names": ["Thiru Indraneela Parvatham"],
    "locality": "Rishikesh",
    "district": "Pauri Garhwal",
    "state": "Uttarakhand",
    "lat": 30.08,
    "lng": 78.35
  },
  {
    "name": "Kedarnath Temple, Kedarnath",
    "alt_names": ["Thirukkedaram"],
    "locality": "Kedarnath",
    "district": "Rudraprayag",
    "state": "Uttarakhand",
    "lat": 30.735,
    "lng": 79.066
  },
  {
    "name": "Kailasanathar Temple, Mount Kailash",
    "alt_names": ["Thiru Kailayam"],
    "locality": "Mount Kailash",
    "district": "Ngari Prefecture",
    "state": "Tibet",
    "lat": 31.066,
    "lng": 81.312
  }
]