[
  {
    "name": "Neelakandeswarar Temple, Pazhamannippadikkarai",
    "alt_names": ["Thiru Pazhamannippadikkarai Neelakandeswarar Temple"],
    "locality": "Iluppapattu",
    "district": "Mayiladuthurai",
    "state": "Tamil Nadu",
    "lat": 11.1643,
    "lng": 79.6000
  },
  {
    "name": "Kanneeswarar Temple, Thiruvalapoor",
    "alt_names": ["Thiru Valappur Kanneeswarar Temple", "Thirumeniyur"],
    "locality": "Thiruvalapoor",
    "district": "Cuddalore",
    "state": "Tamil Nadu",
    "lat": 11.6601,
    "lng": 79.3524
  },
  {
    "name": "Pongu Saneswarar Temple",
    "alt_names": ["Agneeswarar Temple, Kollikadu", "Thiru Kollikkadu Pongu Saneswarar Temple"],
    "locality": "Thirukollikadu",
    "district": "Thiruvarur",
    "state": "Tamil Nadu",
    "lat": 10.6315,
    "lng": 79.5847
  },
  {
    "name": "Chayavaneswarar Temple, Chaikkadu",
    "alt_names": ["Thiru Chaikkadu Chayavaneswarar Temple", "Chayavanam"],
    "locality": "Sayavanam",
    "district": "Mayiladuthurai",
    "state": "Tamil Nadu",
    "lat": 11.233,
    "lng": 79.839
  },
  {
    "name": "Nallavur Nathar Temple",
    "alt_names": ["Thiru Nallavur Nallavur Nathar Temple", "Kalyanasundareswarar Temple, Nallavur"],
    "locality": "Nallavur",
    "district": "Viluppuram",
    "state": "Tamil Nadu",
    "lat": 11.908,
    "lng": 79.303
  },
  {
    "name": "Chathuranga Vallabanathar Temple",
    "alt_names": ["Thiru Chathuranga Vallabanathar Temple"],
    "locality": "Poovanur",
    "district": "Thiruvarur",
    "state": "Tamil Nadu",
    "lat": 10.763,
    "lng": 79.518
  },
  {
    "name": "Paadaaleeswarar Temple",
    "alt_names": ["Thiru Paadaaleeswaram Paadaaleeswarar Temple", "Padaleeswarar Temple, Cuddalore"],
    "locality": "Cuddalore",
    "district": "Cuddalore",
    "state": "Tamil Nadu",
    "lat": 11.7451,
    "lng": 79.7663
  },
  {
    "name": "Iravatheeswarar Temple",
    "alt_names": ["Thiru Ethirkolpadi Iravatheeswarar Temple"],
    "locality": "Mela Thirumanancheri",
    "district": "Mayiladuthurai",
    "state": "Tamil Nadu",
    "lat": 11.108,
    "lng": 79.526
  }
]