[
  {
    "name": "Paimpozhil Nathar Temple, Thiruppaimpozhil",
    "alt_names": [
      "Thirupugalur Vardhamaneswaram"
    ],
    "locality": "Thirupugalur",
    "district": "Nagapattinam",
    "state": "Tamil Nadu",
    "lat": 10.865,
    "lng": 79.684
  },
  {
    "name": "Soundareswarar Temple, Panaiyur",
    "alt_names": [
      "Thirupanaiyur"
    ],
    "locality": "Thiruppanaiyur",
    "district": "Thiruvarur",
    "state": "Tamil Nadu",
    "lat": 10.839,
    "lng": 79.626
  },
  {
    "name": "Vaimur Nathar Temple, Thiru Vaimur",
    "alt_names": [],
    "locality": "Thiruvaimur",
    "district": "Thiruvarur",
    "state": "Tamil Nadu",
    "lat": 10.669,
    "lng": 79.791
  },
  {
    "name": "Vedaranyeswarar Temple, Vedaranyam",
    "alt_names": [
      "Thirumaraikkadu"
    ],
    "locality": "Vedaranyam",
    "district": "Nagapattinam",
    "state": "Tamil Nadu",
    "lat": 10.372,
    "lng": 79.851
  },
  {
    "name": "Agastheeswarar Temple, Agathiyanpalli",
    "alt_names": [],
    "locality": "Agasthiyampalli",
    "district": "Nagapattinam",
    "state": "Tamil Nadu",
    "lat": 10.363,
    "lng": 79.845
  },
  {
    "name": "Kuzhagar Temple, Kodiakkarai",
    "alt_names": [
      "Thirukkodikka"
    ],
    "locality": "Kodiakkarai",
    "district": "Nagapattinam",
    "state": "Tamil Nadu",
    "lat": 10.3,
    "lng": 79.85
  },
  {
    "name": "Idumbavaneswarar Temple, Idumbavanam",
    "alt_names": [],
    "locality": "Idumbavanam",
    "district": "Thiruvarur",
    "state": "Tamil Nadu",
    "lat": 10.428,
    "lng": 79.721
  },
  {
    "name": "Kadambar Koil",
    "alt_names": [],
    "locality": "Iluppaippattu",
    "district": "Mayiladuthurai",
    "state": "Tamil Nadu",
    "lat": 11.164,
    "lng": 79.6
  },
  {
    "name": "Uchisthar Temple, Ooratchi",
    "alt_names": [],
    "locality": "Manjakollai",
    "district": "Thiruvarur",
    "state": "Tamil Nadu",
    "lat": 10.51,
    "lng": 79.73
  },
  {
    "name": "Brahmapureeswarar Temple, Karunjeevi",
    "alt_names": [],
    "locality": "Karuveeli",
    "district": "Thiruvarur",
    "state": "Tamil Nadu",
    "lat": 10.87,
    "lng": 79.52
  },
  {
    "name": "Sarguneswarar Temple, Karuveli",
    "alt_names": [
      "Karuveeli"
    ],
    "locality": "Karuveli",
    "district": "Thiruvarur",
    "state": "Tamil Nadu",
    "lat": 10.871,
    "lng": 79.519
  },
  {
    "name": "Sathgurunathar Temple",
    "alt_names": [],
    "locality": "Thittai",
    "district": "Thanjavur",
    "state": "Tamil Nadu",
    "lat": 10.852,
    "lng": 79.083
  },
  {
    "name": "Jambukeswarar Temple, Thiruvanaikaval",
    "alt_names": [
      "Thiruvanaikoil"
    ],
    "locality": "Thiruvanaikaval",
    "district": "Tiruchirappalli",
    "state": "Tamil Nadu",
    "lat": 10.8534,
    "lng": 78.7054
  },
  {
    "name": "Tharugavaneshwarar Temple, Thirupparaithurai",
    "alt_names": [],
    "locality": "Thirupparaithurai",
    "district": "Tiruchirappalli",
    "state": "Tamil Nadu",
    "lat": 10.834,
    "lng": 78.588
  },
  {
    "name": "Erumbeeswarar Temple, Thiruverumbur",
    "alt_names": [],
    "locality": "Thiruverumbur",
    "district": "Tiruchirappalli",
    "state": "Tamil Nadu",
    "lat": 10.776,
    "lng": 78.756
  },
  {
    "name": "Nedungalathar Temple, Thirunedungalam",
    "alt_names": [],
    "locality": "Thirunedungulam",
    "district": "Tiruchirappalli",
    "state": "Tamil Nadu",
    "lat": 10.833,
    "lng": 78.835
  },
  {
    "name": "Agneeswarar Temple, Thirukattuppalli",
    "alt_names": [],
    "locality": "Thirukattupalli",
    "district": "Thanjavur",
    "state": "Tamil Nadu",
    "lat": 10.865,
    "lng": 78.95
  },
  {
    "name": "Aiyarappar Temple, Thiruvaiyaru",
    "alt_names": [],
    "locality": "Thiruvaiyaru",
    "district": "Thanjavur",
    "state": "Tamil Nadu",
    "lat": 10.883,
    "lng": 79.1
  },
  {
    "name": "Apathsahayar Temple, Thiruppazhanam",
    "alt_names": [],
    "locality": "Thirupazhanam",
    "district": "Thanjavur",
    "state": "Tamil Nadu",
    "lat": 10.9,
    "lng": 79.133
  },
  {
    "name": "Vedapureeswarar Temple, Thiruvedhikudi",
    "alt_names": [],
    "locality": "Thiruvedhikudi",
    "district": "Thanjavur",
    "state": "Tamil Nadu",
    "lat": 10.903,
    "lng": 79.081
  },
  {
    "name": "Othavaneswarar Temple, Thiruchotruthurai",
    "alt_names": [],
    "locality": "Thiruchottruthurai",
    "district": "Thanjavur",
    "state": "Tamil Nadu",
    "lat": 10.852,
    "lng": 79.049
  },
  {
    "name": "Veeratteswarar Temple, Thirukandiyur",
    "alt_names": [],
    "locality": "Thirukandiyur",
    "district": "Thanjavur",
    "state": "Tamil Nadu",
    "lat": 10.862,
    "lng": 79.083
  },
  {
    "name": "Pushpavananathar Temple, Thiruppanthuruthi",
    "alt_names": [],
    "locality": "Thirupoonthuruthi",
    "district": "Thanjavur",
    "state": "Tamil Nadu",
    "lat": 10.835,
    "lng": 79.079
  },
  {
    "name": "Ghritasthaneswara Temple, Thillaisthanam",
    "alt_names": [
      "Thiruneithanam"
    ],
    "locality": "Thillaisthanam",
    "district": "Thanjavur",
    "state": "Tamil Nadu",
    "lat": 10.893,
    "lng": 79.083
  },
  {
    "name": "Vyakrapureeswarar Temple, Perumpuliyur",
    "alt_names": [
      "Thiruperumpuliyur"
    ],
    "locality": "Perumpuliyur",
    "district": "Thanjavur",
    "state": "Tamil Nadu",
    "lat": 10.867,
    "lng": 79.042
  },
  {
    "name": "Chakravageswarar Temple, Thiruppalamanam",
    "alt_names": [],
    "locality": "Thirupalanam",
    "district": "Thanjavur",
    "state": "Tamil Nadu",
    "lat": 10.902,
    "lng": 79.133
  },
  {
    "name": "Atmanathar Temple, Thiru Alampozhil",
    "alt_names": [],
    "locality": "Thiruvalampozhil",
    "district": "Thanjavur",
    "state": "Tamil Nadu",
    "lat": 10.833,
    "lng": 79.016
  },
  {
    "name": "Jnanaparameswarar Temple, Thirukkanamangai",
    "alt_names": [],
    "locality": "Thirukanamangai",
    "district": "Thiruvarur",
    "state": "Tamil Nadu",
    "lat": 10.744,
    "lng": 79.676
  },
  {
    "name": "Thyagarajaswamy Temple, Thiruvarur",
    "alt_names": [
      "Thiruvarur Temple"
    ],
    "locality": "Thiruvarur",
    "district": "Thiruvarur",
    "state": "Tamil Nadu",
    "lat": 10.7725,
    "lng": 79.6358
  },
  {
    "name": "Paravai Unmandali Thali Temple, Thirupparavayunmandali",
    "alt_names": [],
    "locality": "Paravai",
    "district": "Nagapattinam",
    "state": "Tamil Nadu",
    "lat": null,
    "lng": null
  }
]