[
  {
    "name": "Kadaimudinathar Temple, Keezhaiyur",
    "alt_names": [],
    "locality": "Keezhaiyur",
    "district": "Nagapattinam",
    "state": "Tamil Nadu",
    "lat": 11.13,
    "lng": 79.82
  },
  {
    "name": "Dharmapureeswarar Temple, Dharmapuram",
    "alt_names": [],
    "locality": "Thirudharmapuram",
    "district": "Karaikal",
    "state": "Puducherry",
    "lat": 10.97,
    "lng": 79.77
  },
  {
    "name": "Kalyanasundareswarar Temple, Thirunallur",
    "alt_names": [],
    "locality": "Nallur",
    "district": "Thiruvarur",
    "state": "Tamil Nadu",
    "lat": 10.88,
    "lng": 79.5
  },
  {
    "name": "Pasupatheeswarar Temple, Aavur",
    "alt_names": [],
    "locality": "Aavur",
    "district": "Thiruvarur",
    "state": "Tamil Nadu",
    "lat": 10.8,
    "lng": 79.3
  },
  {
    "name": "Sivakozhundeeswarar Temple, Sathimutham",
    "alt_names": [],
    "locality": "Thiru Sakthi Mutram",
    "district": "Thanjavur",
    "state": "Tamil Nadu",
    "lat": 10.94,
    "lng": 79.28
  },
  {
    "name": "Chakravageswarar Temple, Sakkarappalli",
    "alt_names": [],
    "locality": "Chakrapalli",
    "district": "Thanjavur",
    "state": "Tamil Nadu",
    "lat": 10.88,
    "lng": 79.18
  },
  {
    "name": "Mullai Vana Nathar Temple, Thirukarugavur",
    "alt_names": [],
    "locality": "Thirukarukavur",
    "district": "Thanjavur",
    "state": "Tamil Nadu",
    "lat": 10.86,
    "lng": 79.26
  },
  {
    "name": "Pasupatheeswarar Temple, Govindagudi",
    "alt_names": [
      "Thiruppaasoor"
    ],
    "locality": "Avoor",
    "district": "Thanjavur",
    "state": "Tamil Nadu",
    "lat": 10.8,
    "lng": 79.3
  },
  {
    "name": "Sivalokanathar Temple, Achalpuram",
    "alt_names": [
      "Thirunallur Perumanam"
    ],
    "locality": "Achalpuram",
    "district": "Mayiladuthurai",
    "state": "Tamil Nadu",
    "lat": 11.33,
    "lng": 79.73
  },
  {
    "name": "Ezhutharinathar Temple, Innambur",
    "alt_names": [],
    "locality": "Innambur",
    "district": "Thanjavur",
    "state": "Tamil Nadu",
    "lat": 10.97,
    "lng": 79.3
  },
  {
    "name": "Panangattur Nathar Temple, Thiruppanangattur",
    "alt_names": [],
    "locality": "Thirupanangattur",
    "district": "Thiruvarur",
    "state": "Tamil Nadu",
    "lat": 10.7,
    "lng": 79.52
  },
  {
    "name": "Niyamamudaiyar Temple, Niyamam",
    "alt_names": [],
    "locality": "Thiruniyamam",
    "district": "Thanjavur",
    "state": "Tamil Nadu",
    "lat": 10.73,
    "lng": 79.03
  },
  {
    "name": "Vadamoolanathar Temple, Alanthurai",
    "alt_names": [],
    "locality": "Thiruvalanchuzhi",
    "district": "Thanjavur",
    "state": "Tamil Nadu",
    "lat": 10.95,
    "lng": 79.3
  },
  {
    "name": "Nadanapureeswarar Temple, Thandanthottam",
    "alt_names": [],
    "locality": "Thandanthottam",
    "district": "Thanjavur",
    "state": "Tamil Nadu",
    "lat": 10.92,
    "lng": 79.38
  },
  {
    "name": "Krupakupareswarar Temple, Thiruvazhamangalam",
    "alt_names": [],
    "locality": "Thiruvaikavur",
    "district": "Thanjavur",
    "state": "Tamil Nadu",
    "lat": 11.02,
    "lng": 79.37
  },
  {
    "name": "Koneswarar Temple, Kudavasal",
    "alt_names": [],
    "locality": "Kudavasal",
    "district": "Thiruvarur",
    "state": "Tamil Nadu",
    "lat": 10.83,
    "lng": 79.5
  },
  {
    "name": "Sarguneswarar Temple, Seruvili",
    "alt_names": [],
    "locality": "Cheruvili",
    "district": "Thiruvarur",
    "state": "Tamil Nadu",
    "lat": null,
    "lng": null
  },
  {
    "name": "Rathnapureeswarar Temple, Naattiyathankudi",
    "alt_names": [],
    "locality": "Nattiyathankudi",
    "district": "Thiruvarur",
    "state": "Tamil Nadu",
    "lat": 10.7,
    "lng": 79.5
  },
  {
    "name": "Pasupatheeswarar Temple, Pandanallur",
    "alt_names": [],
    "locality": "Pandanallur",
    "district": "Thanjavur",
    "state": "Tamil Nadu",
    "lat": 11.08,
    "lng": 79.5
  },
  {
    "name": "Agneeswarar Temple, Kanjanur",
    "alt_names": [],
    "locality": "Kanjanur",
    "district": "Thanjavur",
    "state": "Tamil Nadu",
    "lat": 11.09,
    "lng": 79.43
  },
  {
    "name": "Kodeeswarar Temple, Thirukkodikkaval",
    "alt_names": [],
    "locality": "Thirukodukaval",
    "district": "Thanjavur",
    "state": "Tamil Nadu",
    "lat": 11.03,
    "lng": 79.45
  },
  {
    "name": "Prananadeswarar Temple, Thirumangalakudi",
    "alt_names": [],
    "locality": "Thirumangalakudi",
    "district": "Thanjavur",
    "state": "Tamil Nadu",
    "lat": 11.08,
    "lng": 79.42
  },
  {
    "name": "Vyagrapureeswarar Temple, Thiruvaikavur",
    "alt_names": [],
    "locality": "Thiruvaikavur",
    "district": "Thanjavur",
    "state": "Tamil Nadu",
    "lat": 11.02,
    "lng": 79.37
  },
  {
    "name": "Neelakandeswarar Temple, Iluppapattu",
    "alt_names": [],
    "locality": "Iluppapattu",
    "district": "Mayiladuthurai",
    "state": "Tamil Nadu",
    "lat": 11.16,
    "lng": 79.6
  },
  {
    "name": "Parvatheeswarar Temple, Koilpathu",
    "alt_names": [
      "Thiru Thelichery"
    ],
    "locality": "Thiruthalaichangadu",
    "district": "Karaikal",
    "state": "Puducherry",
    "lat": 11.12,
    "lng": 79.8
  },
  {
    "name": "Amirthakadeswarar Temple, Sakkottai",
    "alt_names": [
      "Thiru Kalayanallur"
    ],
    "locality": "Kalayanallur",
    "district": "Thanjavur",
    "state": "Tamil Nadu",
    "lat": 10.95,
    "lng": 79.35
  },
  {
    "name": "Vijayanatheswarar Temple, Thiruvisayamangai",
    "alt_names": [],
    "locality": "Kovilacheri",
    "district": "Thanjavur",
    "state": "Tamil Nadu",
    "lat": 11,
    "lng": 79.38
  },
  {
    "name": "Vaikal Nathar Temple, Thiruvaikal",
    "alt_names": [],
    "locality": "Thiruvaikal",
    "district": "Thiruvarur",
    "state": "Tamil Nadu",
    "lat": 10.88,
    "lng": 79.52
  },
  {
    "name": "Gomuktheeswarar Temple, Thiruvaduthurai",
    "alt_names": [],
    "locality": "Thiruvavaduthurai",
    "district": "Mayiladuthurai",
    "state": "Tamil Nadu",
    "lat": 11.05,
    "lng": 79.52
  },
  {
    "name": "Uthavedeeswarar Temple, Kuthalam",
    "alt_names": [
      "Thiru Thuruthy"
    ],
    "locality": "Kuthalam",
    "district": "Mayiladuthurai",
    "state": "Tamil Nadu",
    "lat": 11.08,
    "lng": 79.55
  }
]